country,state,city,station,last_update,latitude,longitude,pollutant_id,pollutant_min,pollutant_max,pollutant_avg,date,hour
India,Andhra_Pradesh,Amaravati,"Secretariat, Amaravati - APPCB",2025-10-03 17:00:00,16.5150833,80.5181667,CO,6.0,92.0,33.0,2025-10-03,17
India,Andhra_Pradesh,Anantapur,"Gulzarpet, Anantapur - APPCB",2025-10-03 17:00:00,14.675886,77.593027,SO2,10.0,16.0,12.0,2025-10-03,17
India,Andhra_Pradesh,Chittoor,"Gangineni Cheruvu, Chittoor - APPCB",2025-10-03 17:00:00,13.20488,79.097889,PM2.5,24.0,152.0,78.0,2025-10-03,17
India,Andhra_Pradesh,Chittoor,"Gangineni Cheruvu, Chittoor - APPCB",2025-10-03 17:00:00,13.20488,79.097889,NO2,7.0,18.0,15.0,2025-10-03,17
India,Andhra_Pradesh,Kadapa,"Yerramukkapalli, Kadapa - APPCB",2025-10-03 17:00:00,14.465052,78.824187,PM2.5,25.599043715846996,86.22131147540983,51.459016393442624,2025-10-03,17
India,Andhra_Pradesh,Kadapa,"Yerramukkapalli, Kadapa - APPCB",2025-10-03 17:00:00,14.465052,78.824187,PM10,25.599043715846996,86.22131147540983,51.459016393442624,2025-10-03,17
India,Arunachal_Pradesh,Naharlagun,"Naharlagun, Naharlagun - APSPCB",2025-10-03 17:00:00,27.103358,93.679645,NO2,25.599043715846996,86.22131147540983,51.459016393442624,2025-10-03,17
India,Arunachal_Pradesh,Naharlagun,"Naharlagun, Naharlagun - APSPCB",2025-10-03 17:00:00,27.103358,93.679645,SO2,25.599043715846996,86.22131147540983,51.459016393442624,2025-10-03,17
India,Assam,Byrnihat,"Central Academy for SFS, Byrnihat - PCBA",2025-10-03 17:00:00,26.071318,91.87488,NH3,25.599043715846996,86.22131147540983,51.459016393442624,2025-10-03,17
India,Andhra_Pradesh,Vijayawada,"HB Colony, Vijayawada - APPCB",2025-10-03 17:00:00,16.536107,80.594233,PM10,51.0,77.0,58.0,2025-10-03,17
India,Andhra_Pradesh,Vijayawada,"Kanuru, Vijayawada - APPCB",2025-10-03 17:00:00,16.486692,80.699436,NH3,25.599043715846996,86.22131147540983,51.459016393442624,2025-10-03,17
India,Andhra_Pradesh,Vijayawada,"Kanuru, Vijayawada - APPCB",2025-10-03 17:00:00,16.486692,80.699436,SO2,25.599043715846996,86.22131147540983,51.459016393442624,2025-10-03,17
India,Andhra_Pradesh,Vijayawada,"Rajiv Gandhi Park, Vijayawada - APPCB",2025-10-03 17:00:00,16.509717,80.612222,NH3,2.0,6.0,4.0,2025-10-03,17
India,Andhra_Pradesh,Vijayawada,"Rajiv Nagar, Vijayawada - APPCB",2025-10-03 17:00:00,16.554731,80.64911,PM10,45.0,59.0,51.0,2025-10-03,17
India,Andaman and Nicobar,Sri Vijaya Puram,"Police Line, Sri Vijaya Puram - ANPCC",2025-10-03 17:00:00,11.654054,92.734055,PM2.5,1.0,58.0,20.0,2025-10-03,17
India,Andaman and Nicobar,Sri Vijaya Puram,"Police Line, Sri Vijaya Puram - ANPCC",2025-10-03 17:00:00,11.654054,92.734055,PM10,25.0,59.0,39.0,2025-10-03,17
India,Andaman and Nicobar,Sri Vijaya Puram,"Police Line, Sri Vijaya Puram - ANPCC",2025-10-03 17:00:00,11.654054,92.734055,OZONE,5.0,94.0,39.0,2025-10-03,17
India,Andhra_Pradesh,Visakhapatnam,"GVM Corporation, Visakhapatnam - APPCB",2025-10-03 17:00:00,17.72,83.3,NO2,15.0,54.0,35.0,2025-10-03,17
India,Andhra_Pradesh,Visakhapatnam,"GVM Corporation, Visakhapatnam - APPCB",2025-10-03 17:00:00,17.72,83.3,SO2,6.0,13.0,10.0,2025-10-03,17
India,Assam,Byrnihat,"Central Academy for SFS, Byrnihat - PCBA",2025-10-03 17:00:00,26.071318,91.87488,CO,34.0,66.0,50.0,2025-10-03,17
India,Andhra_Pradesh,Tirupati,"Vaikuntapuram, Tirupati - APPCB",2025-10-03 17:00:00,13.615387,79.40923,NO2,25.599043715846996,86.22131147540983,51.459016393442624,2025-10-03,17
India,Assam,Guwahati,"LGBI Airport, Guwahati - PCBA",2025-10-03 17:00:00,26.10887,91.589544,NO2,19.0,24.0,21.0,2025-10-03,17
India,Assam,Guwahati,"LGBI Airport, Guwahati - PCBA",2025-10-03 17:00:00,26.10887,91.589544,OZONE,14.0,17.0,16.0,2025-10-03,17
India,Assam,Guwahati,"Pan Bazaar, Guwahati - PCBA",2025-10-03 17:00:00,26.1875,91.744194,NO2,1.0,12.0,4.0,2025-10-03,17
India,Assam,Guwahati,"Pan Bazaar, Guwahati - PCBA",2025-10-03 17:00:00,26.1875,91.744194,CO,24.0,75.0,33.0,2025-10-03,17
India,Assam,Guwahati,"Railway Colony, Guwahati - PCBA",2025-10-03 17:00:00,26.181742,91.78063,CO,32.0,108.0,38.0,2025-10-03,17
India,Assam,Nagaon,"Christianpatty, Nagaon - PCBA",2025-10-03 17:00:00,26.349082,92.68449,PM2.5,43.0,170.0,88.0,2025-10-03,17
India,Assam,Nagaon,"Christianpatty, Nagaon - PCBA",2025-10-03 17:00:00,26.349082,92.68449,PM10,48.0,131.0,89.0,2025-10-03,17
India,Assam,Nagaon,"Christianpatty, Nagaon - PCBA",2025-10-03 17:00:00,26.349082,92.68449,NH3,4.0,4.0,4.0,2025-10-03,17
India,Bihar,Munger,"Town Hall, Munger - BSPCB",2025-10-03 17:00:00,25.376776,86.471523,OZONE,6.0,17.0,11.0,2025-10-03,17
India,Bihar,Muzaffarpur,"Buddha Colony, Muzaffarpur - BSPCB",2025-10-03 17:00:00,26.11442,85.39813,NO2,5.0,20.0,13.0,2025-10-03,17
India,Bihar,Muzaffarpur,"Buddha Colony, Muzaffarpur - BSPCB",2025-10-03 17:00:00,26.11442,85.39813,NH3,7.0,13.0,11.0,2025-10-03,17
India,Bihar,Muzaffarpur,"MIT-Daudpur Kothi, Muzaffarpur - BSPCB",2025-10-03 17:00:00,26.1403345,85.3650192,NH3,2.0,3.0,2.0,2025-10-03,17
India,Bihar,Muzaffarpur,"MIT-Daudpur Kothi, Muzaffarpur - BSPCB",2025-10-03 17:00:00,26.1403345,85.3650192,SO2,5.0,8.0,8.0,2025-10-03,17
India,Bihar,Muzaffarpur,"Muzaffarpur Collectorate, Muzaffarpur - BSPCB",2025-10-03 17:00:00,26.1209,85.3647,SO2,4.0,10.0,5.0,2025-10-03,17
India,Bihar,Patna,"DRM Office Danapur, Patna - BSPCB",2025-10-03 17:00:00,25.586562,85.043586,SO2,3.0,7.0,5.0,2025-10-03,17
India,Bihar,Begusarai,"Lohiyanagar, Begusarai - BSPCB",2025-10-03 17:00:00,25.42742023,86.13886079,CO,36.0,64.0,49.0,2025-10-03,17
India,Bihar,Begusarai,"Lohiyanagar, Begusarai - BSPCB",2025-10-03 17:00:00,25.42742023,86.13886079,OZONE,2.0,6.0,3.0,2025-10-03,17
India,Bihar,Bhagalpur,"DM Office_Kachari Chowk, Bhagalpur - BSPCB",2025-10-03 17:00:00,25.251013,86.989001,PM10,25.599043715846996,86.22131147540983,51.459016393442624,2025-10-03,17
India,Bihar,Bhagalpur,"DM Office_Kachari Chowk, Bhagalpur - BSPCB",2025-10-03 17:00:00,25.251013,86.989001,NH3,25.599043715846996,86.22131147540983,51.459016393442624,2025-10-03,17
India,Bihar,Bhagalpur,"Mayaganj, Bhagalpur - BSPCB",2025-10-03 17:00:00,25.265194,87.012947,PM2.5,25.599043715846996,86.22131147540983,51.459016393442624,2025-10-03,17
India,Assam,Nalbari,"Bata Chowk, Nalbari - PCBA",2025-10-03 17:00:00,26.446912,91.439057,NO2,8.0,58.0,24.0,2025-10-03,17
India,Assam,Nalbari,"Bata Chowk, Nalbari - PCBA",2025-10-03 17:00:00,26.446912,91.439057,CO,8.0,40.0,24.0,2025-10-03,17
India,Assam,Silchar,"Tarapur, Silchar - PCBA",2025-10-03 17:00:00,24.82827,92.79525,SO2,5.0,19.0,9.0,2025-10-03,17
India,Assam,Silchar,"Tarapur, Silchar - PCBA",2025-10-03 17:00:00,24.82827,92.79525,CO,20.0,37.0,23.0,2025-10-03,17
India,Assam,Sivasagar,"Girls College, Sivasagar - PCBA",2025-10-03 17:00:00,26.987634,94.636574,PM10,40.0,94.0,69.0,2025-10-03,17
India,Bihar,Kishanganj,"SDM Office_Khagra, Kishanganj - BSPCB",2025-10-03 17:00:00,26.0881305,87.93840336,NH3,10.0,13.0,11.0,2025-10-03,17
India,Bihar,Manguraha,"Forest Rest House, Manguraha - BSPCB",2025-10-03 17:00:00,27.308328,84.531742,CO,24.0,107.0,76.0,2025-10-03,17
India,Bihar,Motihari,"Gandak Colony, Motihari - BSPCB",2025-10-03 17:00:00,26.63086,84.90051,PM2.5,13.0,277.0,132.0,2025-10-03,17
India,Bihar,Motihari,"Gandak Colony, Motihari - BSPCB",2025-10-03 17:00:00,26.63086,84.90051,PM10,58.0,185.0,117.0,2025-10-03,17
India,Bihar,Buxar,"Charitra Van, Buxar - BSPCB",2025-10-03 17:00:00,25.56752,83.966379,PM10,25.599043715846996,86.22131147540983,51.459016393442624,2025-10-03,17
India,Bihar,Buxar,"Charitra Van, Buxar - BSPCB",2025-10-03 17:00:00,25.56752,83.966379,NH3,25.599043715846996,86.22131147540983,51.459016393442624,2025-10-03,17
India,Bihar,Gaya,"Collectorate, Gaya - BSPCB",2025-10-03 17:00:00,24.7955,84.9994,SO2,25.599043715846996,86.22131147540983,51.459016393442624,2025-10-03,17
India,Bihar,Gaya,"Kareemganj, Gaya - BSPCB",2025-10-03 17:00:00,24.792403,84.992416,NO2,3.0,7.0,5.0,2025-10-03,17
India,Bihar,Gaya,"Kareemganj, Gaya - BSPCB",2025-10-03 17:00:00,24.792403,84.992416,SO2,15.0,17.0,16.0,2025-10-03,17
India,Bihar,Arrah,"New DM Office, Arrah - BSPCB",2025-10-03 17:00:00,25.5626095,84.663264,PM2.5,18.0,170.0,90.0,2025-10-03,17
India,Bihar,Arrah,"New DM Office, Arrah - BSPCB",2025-10-03 17:00:00,25.5626095,84.663264,NO2,5.0,9.0,7.0,2025-10-03,17
India,Bihar,Aurangabad,"Gurdeo Nagar, Aurangabad - BSPCB",2025-10-03 17:00:00,24.75746,84.366208,PM2.5,25.599043715846996,86.22131147540983,51.459016393442624,2025-10-03,17
India,Bihar,Gaya,"Kareemganj, Gaya - BSPCB",2025-10-03 17:00:00,24.792403,84.992416,CO,8.0,78.0,31.0,2025-10-03,17
India,Bihar,Patna,"DRM Office Danapur, Patna - BSPCB",2025-10-03 17:00:00,25.586562,85.043586,CO,38.0,96.0,53.0,2025-10-03,17
India,Bihar,Patna,"Govt. High School Shikarpur, Patna - BSPCB",2025-10-03 17:00:00,25.592539,85.227158,PM10,113.0,368.0,202.0,2025-10-03,17
India,Bihar,Patna,"Govt. High School Shikarpur, Patna - BSPCB",2025-10-03 17:00:00,25.592539,85.227158,NO2,6.0,11.0,8.0,2025-10-03,17
India,Bihar,Patna,"Govt. High School Shikarpur, Patna - BSPCB",2025-10-03 17:00:00,25.592539,85.227158,SO2,5.0,9.0,7.0,2025-10-03,17
India,Bihar,Patna,"Govt. High School Shikarpur, Patna - BSPCB",2025-10-03 17:00:00,25.592539,85.227158,OZONE,16.0,33.0,26.0,2025-10-03,17
India,Bihar,Patna,"IGSC Planetarium Complex, Patna - BSPCB",2025-10-03 17:00:00,25.610369,85.132568,SO2,4.0,9.0,7.0,2025-10-03,17
India,Bihar,Patna,"IGSC Planetarium Complex, Patna - BSPCB",2025-10-03 17:00:00,25.610369,85.132568,OZONE,25.0,26.0,25.0,2025-10-03,17
India,Bihar,Patna,"Muradpur, Patna - BSPCB",2025-10-03 17:00:00,25.619651,85.147382,PM2.5,133.0,295.0,218.0,2025-10-03,17
India,Bihar,Patna,"Rajbansi Nagar, Patna - BSPCB",2025-10-03 17:00:00,25.599486,85.113666,SO2,9.0,19.0,13.0,2025-10-03,17
India,Bihar,Patna,"Rajbansi Nagar, Patna - BSPCB",2025-10-03 17:00:00,25.599486,85.113666,OZONE,4.0,30.0,25.0,2025-10-03,17
India,Bihar,Patna,"Samanpura, Patna - BSPCB",2025-10-03 17:00:00,25.596727,85.085624,PM2.5,61.0,309.0,204.0,2025-10-03,17
India,Chandigarh,Chandigarh,"Sector-25, Chandigarh - CPCC",2025-10-03 17:00:00,30.751462,76.762879,OZONE,1.0,74.0,59.0,2025-10-03,17
India,Chandigarh,Chandigarh,"Sector-53, Chandigarh - CPCC",2025-10-03 17:00:00,30.719859,76.738637,NO2,20.0,162.0,79.0,2025-10-03,17
India,Chandigarh,Chandigarh,"Sector-53, Chandigarh - CPCC",2025-10-03 17:00:00,30.719859,76.738637,SO2,6.0,60.0,24.0,2025-10-03,17
India,Chandigarh,Chandigarh,"Sector-53, Chandigarh - CPCC",2025-10-03 17:00:00,30.719859,76.738637,CO,37.0,111.0,66.0,2025-10-03,17
India,Chhattisgarh,Bhilai,"32Bungalows, Bhilai - CECB",2025-10-03 17:00:00,21.194815,81.31477,PM2.5,49.0,91.0,62.0,2025-10-03,17
India,Chhattisgarh,Bhilai,"32Bungalows, Bhilai - CECB",2025-10-03 17:00:00,21.194815,81.31477,PM10,61.0,127.0,84.0,2025-10-03,17
India,Chhattisgarh,Bhilai,"32Bungalows, Bhilai - CECB",2025-10-03 17:00:00,21.194815,81.31477,SO2,13.0,49.0,26.0,2025-10-03,17
India,Chhattisgarh,Bhilai,"Civic Center, Bhilai - Bhilai Steel Plant",2025-10-03 17:00:00,21.185571,81.343175,NO2,3.0,11.0,6.0,2025-10-03,17
India,Chhattisgarh,Bhilai,"Civic Center, Bhilai - Bhilai Steel Plant",2025-10-03 17:00:00,21.185571,81.343175,SO2,6.0,17.0,10.0,2025-10-03,17
India,Chhattisgarh,Korba,"Urja Nagar, Korba - CECB",2025-10-03 17:00:00,22.348441,82.549611,NH3,1.0,2.0,2.0,2025-10-03,17
India,Chhattisgarh,Kunjemura,"OP Jindal School, Kunjemura - CECB",2025-10-03 17:00:00,22.12665,83.483212,PM2.5,43.0,316.0,151.0,2025-10-03,17
India,Chhattisgarh,Milupara,"Govt. Higher Secondary School, Milupara - CECB",2025-10-03 17:00:00,22.1910172,83.5197009,PM10,107.0,452.0,164.0,2025-10-03,17
India,Chhattisgarh,Milupara,"Govt. Higher Secondary School, Milupara - CECB",2025-10-03 17:00:00,22.1910172,83.5197009,CO,31.0,126.0,51.0,2025-10-03,17
India,Chhattisgarh,Raipur,"AIIMS, Raipur - CECB",2025-10-03 17:00:00,21.258815,81.578979,NO2,46.0,77.0,66.0,2025-10-03,17
India,Bihar,Purnia,"Mariam Nagar, Purnia - BSPCB",2025-10-03 17:00:00,25.366336,87.117468,NH3,3.0,3.0,3.0,2025-10-03,17
India,Bihar,Purnia,"Mariam Nagar, Purnia - BSPCB",2025-10-03 17:00:00,25.366336,87.117468,OZONE,12.0,61.0,26.0,2025-10-03,17
India,Bihar,Saharsa,"Police Line, Saharsa - BSPCB",2025-10-03 17:00:00,25.892357,86.590325,NH3,25.599043715846996,86.22131147540983,51.459016393442624,2025-10-03,17
India,Bihar,Samastipur,"DM Office_Kasipur, Samastipur - BSPCB",2025-10-03 17:00:00,25.859655,85.77944,NO2,25.599043715846996,86.22131147540983,51.459016393442624,2025-10-03,17
India,Bihar,Sasaram,"Dada Peer, Sasaram - BSPCB",2025-10-03 17:00:00,24.952822,84.002396,PM10,61.0,191.0,126.0,2025-10-03,17
India,Bihar,Siwan,"Chitragupta Nagar, Siwan - BSPCB",2025-10-03 17:00:00,26.2271665,84.3570427,PM10,25.599043715846996,86.22131147540983,51.459016393442624,2025-10-03,17
India,Chandigarh,Chandigarh,"Sector 22, Chandigarh - CPCC",2025-10-03 17:00:00,30.735567,76.775714,NO2,24.0,140.0,50.0,2025-10-03,17
India,Chhattisgarh,Raipur,"Bhatagaon New ISBT, Raipur - CECB",2025-10-03 17:00:00,21.219665,81.630094,PM10,63.0,140.0,87.0,2025-10-03,17
India,Chhattisgarh,Raipur,"Bhatagaon New ISBT, Raipur - CECB",2025-10-03 17:00:00,21.219665,81.630094,CO,38.0,70.0,45.0,2025-10-03,17
India,Chhattisgarh,Raipur,"Bhatagaon New ISBT, Raipur - CECB",2025-10-03 17:00:00,21.219665,81.630094,OZONE,7.0,34.0,11.0,2025-10-03,17
India,Chhattisgarh,Raipur,"Siltara Phase-II, Raipur - CECB",2025-10-03 17:00:00,21.371751,81.664929,PM2.5,25.599043715846996,86.22131147540983,51.459016393442624,2025-10-03,17
India,Chhattisgarh,Chhal,"Nawapara SECL Colony, Chhal - CECB",2025-10-03 17:00:00,22.118125,83.140608,PM10,61.0,180.0,101.0,2025-10-03,17
India,Chhattisgarh,Chhal,"Nawapara SECL Colony, Chhal - CECB",2025-10-03 17:00:00,22.118125,83.140608,NO2,21.0,47.0,30.0,2025-10-03,17
India,Chhattisgarh,Chhal,"Nawapara SECL Colony, Chhal - CECB",2025-10-03 17:00:00,22.118125,83.140608,NH3,2.0,3.0,3.0,2025-10-03,17
India,Chhattisgarh,Bhilai,"Hathkhoj, Bhilai - CECB",2025-10-03 17:00:00,21.224231,81.40835,PM2.5,57.0,150.0,81.0,2025-10-03,17
India,Chhattisgarh,Bhilai,"Hathkhoj, Bhilai - CECB",2025-10-03 17:00:00,21.224231,81.40835,PM10,66.0,138.0,99.0,2025-10-03,17
India,Chhattisgarh,Chhal,"Nawapara SECL Colony, Chhal - CECB",2025-10-03 17:00:00,22.118125,83.140608,CO,39.0,70.0,55.0,2025-10-03,17
India,Delhi,Delhi,"Mundka, Delhi - DPCC",2025-10-03 17:00:00,28.684678,77.076574,SO2,5.0,11.0,8.0,2025-10-03,17
India,Delhi,Delhi,"Mundka, Delhi - DPCC",2025-10-03 17:00:00,28.684678,77.076574,OZONE,6.0,114.0,81.0,2025-10-03,17
India,Delhi,Delhi,"NSIT Dwarka, Delhi - CPCB",2025-10-03 17:00:00,28.60909,77.0325413,PM2.5,32.0,151.0,86.0,2025-10-03,17
India,Delhi,Delhi,"NSIT Dwarka, Delhi - CPCB",2025-10-03 17:00:00,28.60909,77.0325413,NO2,12.0,35.0,22.0,2025-10-03,17
India,Delhi,Delhi,"NSIT Dwarka, Delhi - CPCB",2025-10-03 17:00:00,28.60909,77.0325413,CO,1.0,193.0,70.0,2025-10-03,17
India,Delhi,Delhi,"Najafgarh, Delhi - DPCC",2025-10-03 17:00:00,28.570173,76.933762,SO2,3.0,20.0,16.0,2025-10-03,17
India,Chhattisgarh,Raipur,"Siltara Phase-II, Raipur - CECB",2025-10-03 17:00:00,21.371751,81.664929,SO2,25.599043715846996,86.22131147540983,51.459016393442624,2025-10-03,17
India,Chhattisgarh,Raipur,"Siltara Phase-II, Raipur - CECB",2025-10-03 17:00:00,21.371751,81.664929,CO,14.0,41.0,35.0,2025-10-03,17
India,Chhattisgarh,Tumidih,"OP Jindal Industrial Park, Tumidih - CECB",2025-10-03 17:00:00,22.06631475,83.33820077,PM2.5,25.599043715846996,86.22131147540983,51.459016393442624,2025-10-03,17
India,Chhattisgarh,Tumidih,"OP Jindal Industrial Park, Tumidih - CECB",2025-10-03 17:00:00,22.06631475,83.33820077,PM10,25.599043715846996,86.22131147540983,51.459016393442624,2025-10-03,17
India,Chhattisgarh,Tumidih,"OP Jindal Industrial Park, Tumidih - CECB",2025-10-03 17:00:00,22.06631475,83.33820077,NO2,23.0,93.0,56.0,2025-10-03,17
India,Chhattisgarh,Tumidih,"OP Jindal Industrial Park, Tumidih - CECB",2025-10-03 17:00:00,22.06631475,83.33820077,CO,30.0,84.0,45.0,2025-10-03,17
India,Delhi,Delhi,"CRRI Mathura Road, Delhi - IMD",2025-10-03 17:00:00,28.5512005,77.2735737,NO2,25.599043715846996,86.22131147540983,51.459016393442624,2025-10-03,17
India,Delhi,Delhi,"Chandni Chowk, Delhi - IITM",2025-10-03 17:00:00,28.656756,77.227234,PM2.5,63.0,291.0,166.0,2025-10-03,17
India,Delhi,Delhi,"Chandni Chowk, Delhi - IITM",2025-10-03 17:00:00,28.656756,77.227234,OZONE,3.0,36.0,26.0,2025-10-03,17
India,Delhi,Delhi,"Dwarka-Sector 8, Delhi - DPCC ",2025-10-03 17:00:00,28.5710274,77.0719006,NH3,12.0,17.0,15.0,2025-10-03,17
India,Delhi,Delhi,"Dwarka-Sector 8, Delhi - DPCC ",2025-10-03 17:00:00,28.5710274,77.0719006,SO2,16.0,23.0,19.0,2025-10-03,17
India,Delhi,Delhi,"IHBAS, Dilshad Garden, Delhi - CPCB",2025-10-03 17:00:00,28.6811736,77.3025234,PM2.5,46.0,129.0,68.0,2025-10-03,17
India,Delhi,Delhi,"Ashok Vihar, Delhi - DPCC",2025-10-03 17:00:00,28.695381,77.181665,NO2,20.0,152.0,76.0,2025-10-03,17
India,Delhi,Delhi,"Ashok Vihar, Delhi - DPCC",2025-10-03 17:00:00,28.695381,77.181665,CO,17.0,103.0,35.0,2025-10-03,17
India,Delhi,Delhi,"Aya Nagar, Delhi - IMD",2025-10-03 17:00:00,28.4706914,77.1099364,PM2.5,37.0,280.0,132.0,2025-10-03,17
India,Delhi,Delhi,"Major Dhyan Chand National Stadium, Delhi - DPCC",2025-10-03 17:00:00,28.611281,77.237738,NO2,19.0,147.0,84.0,2025-10-03,17
India,Delhi,Delhi,"Jawaharlal Nehru Stadium, Delhi - DPCC",2025-10-03 17:00:00,28.58028,77.233829,OZONE,18.0,90.0,58.0,2025-10-03,17
India,Delhi,Delhi,"Aya Nagar, Delhi - IMD",2025-10-03 17:00:00,28.4706914,77.1099364,OZONE,128.0,181.0,176.0,2025-10-03,17
India,Delhi,Delhi,"ITO, Delhi - CPCB",2025-10-03 17:00:00,28.628624,77.24106,SO2,9.0,37.0,24.0,2025-10-03,17
India,Delhi,Delhi,"Vivek Vihar, Delhi - DPCC",2025-10-03 17:00:00,28.672342,77.31526,OZONE,2.0,151.0,151.0,2025-10-03,17
India,Delhi,Delhi,"Wazirpur, Delhi - DPCC",2025-10-03 17:00:00,28.699793,77.165453,PM2.5,83.0,350.0,243.0,2025-10-03,17
India,Delhi,Delhi,"Wazirpur, Delhi - DPCC",2025-10-03 17:00:00,28.699793,77.165453,CO,8.0,124.0,69.0,2025-10-03,17
India,Gujarat,Ahmedabad,"Chandkheda, Ahmedabad - IITM",2025-10-03 17:00:00,23.107969,72.574648,NO2,15.0,148.0,67.0,2025-10-03,17
India,Gujarat,Ahmedabad,"Gyaspur, Ahmedabad - IITM",2025-10-03 17:00:00,22.977134,72.553024,SO2,25.599043715846996,86.22131147540983,51.459016393442624,2025-10-03,17
India,Gujarat,Ahmedabad,"Gyaspur, Ahmedabad - IITM",2025-10-03 17:00:00,22.977134,72.553024,OZONE,1.0,103.0,52.0,2025-10-03,17
India,Gujarat,Ahmedabad,"Maninagar, Ahmedabad - GPCB",2025-10-03 17:00:00,23.002657,72.591912,CO,10.0,68.0,28.0,2025-10-03,17
India,Gujarat,Ahmedabad,"Raikhad, Ahmedabad - IITM",2025-10-03 17:00:00,23.020509,72.579261,PM10,84.0,169.0,128.0,2025-10-03,17
India,Delhi,Delhi,"Sirifort, Delhi - CPCB",2025-10-03 17:00:00,28.5504249,77.2159377,NO2,42.0,47.0,44.0,2025-10-03,17
India,Delhi,Delhi,"Sonia Vihar, Delhi - DPCC",2025-10-03 17:00:00,28.710508,77.249485,SO2,12.0,41.0,22.0,2025-10-03,17
India,Delhi,Delhi,"Sonia Vihar, Delhi - DPCC",2025-10-03 17:00:00,28.710508,77.249485,OZONE,9.0,88.0,55.0,2025-10-03,17
India,Delhi,Delhi,"Sri Aurobindo Marg, Delhi - DPCC",2025-10-03 17:00:00,28.531346,77.190156,PM10,108.0,193.0,142.0,2025-10-03,17
India,Delhi,Delhi,"Vivek Vihar, Delhi - DPCC",2025-10-03 17:00:00,28.672342,77.31526,NH3,1.0,5.0,3.0,2025-10-03,17
India,Delhi,Delhi,"Nehru Nagar, Delhi - DPCC",2025-10-03 17:00:00,28.56789,77.250515,NH3,8.0,21.0,9.0,2025-10-03,17
India,Delhi,Delhi,"Nehru Nagar, Delhi - DPCC",2025-10-03 17:00:00,28.56789,77.250515,OZONE,2.0,195.0,195.0,2025-10-03,17
India,Delhi,Delhi,"North Campus, DU, Delhi - IMD",2025-10-03 17:00:00,28.6573814,77.1585447,PM2.5,69.0,331.0,179.0,2025-10-03,17
India,Delhi,Delhi,"North Campus, DU, Delhi - IMD",2025-10-03 17:00:00,28.6573814,77.1585447,PM10,104.0,273.0,162.0,2025-10-03,17
India,Delhi,Delhi,"Okhla Phase-2, Delhi - DPCC",2025-10-03 17:00:00,28.530785,77.271255,OZONE,6.0,145.0,79.0,2025-10-03,17
India,Delhi,Delhi,"Punjabi Bagh, Delhi - DPCC",2025-10-03 17:00:00,28.674045,77.131023,PM10,112.0,276.0,166.0,2025-10-03,17
India,Delhi,Delhi,"Pusa, Delhi - DPCC",2025-10-03 17:00:00,28.639652,77.146275,NH3,7.0,14.0,11.0,2025-10-03,17
India,Delhi,Delhi,"Pusa, Delhi - IMD",2025-10-03 17:00:00,28.63611,77.173332,CO,28.0,72.0,41.0,2025-10-03,17
India,Gujarat,Ahmedabad,"Rakhial, Ahmedabad - IITM",2025-10-03 17:00:00,23.016834,72.625775,PM10,51.0,210.0,122.0,2025-10-03,17
India,Gujarat,Ahmedabad,"Rakhial, Ahmedabad - IITM",2025-10-03 17:00:00,23.016834,72.625775,NH3,2.0,18.0,7.0,2025-10-03,17
India,Gujarat,Ahmedabad,"Rakhial, Ahmedabad - IITM",2025-10-03 17:00:00,23.016834,72.625775,SO2,30.0,116.0,80.0,2025-10-03,17
India,Delhi,Delhi,"R K Puram, Delhi - DPCC",2025-10-03 17:00:00,28.563262,77.186937,CO,6.0,104.0,24.0,2025-10-03,17
India,Delhi,Delhi,"Rohini, Delhi - DPCC",2025-10-03 17:00:00,28.732528,77.11992,CO,24.0,105.0,38.0,2025-10-03,17
India,Delhi,Delhi,"Patparganj, Delhi - DPCC",2025-10-03 17:00:00,28.623763,77.287209,PM10,141.0,300.0,189.0,2025-10-03,17
India,Delhi,Delhi,"Patparganj, Delhi - DPCC",2025-10-03 17:00:00,28.623763,77.287209,NO2,21.0,115.0,54.0,2025-10-03,17
India,Gujarat,Ahmedabad,"Raikhad, Ahmedabad - IITM",2025-10-03 17:00:00,23.020509,72.579261,SO2,7.0,16.0,10.0,2025-10-03,17
India,Delhi,Delhi,"R K Puram, Delhi - DPCC",2025-10-03 17:00:00,28.563262,77.186937,NH3,3.0,8.0,5.0,2025-10-03,17
India,Karnataka,Bengaluru,"BTM Layout, Bengaluru - CPCB",2025-10-03 17:00:00,12.9135218,77.5950804,CO,20.0,36.0,26.0,2025-10-03,17
India,Karnataka,Bengaluru,"Bapuji Nagar, Bengaluru - KSPCB",2025-10-03 17:00:00,12.951913,77.539784,OZONE,35.0,69.0,50.0,2025-10-03,17
India,Karnataka,Bengaluru,"City Railway Station, Bengaluru - KSPCB",2025-10-03 17:00:00,12.9756843,77.5660749,SO2,8.0,19.0,12.0,2025-10-03,17
India,Karnataka,Bengaluru,"Hebbal, Bengaluru - KSPCB",2025-10-03 17:00:00,13.029152,77.585901,PM10,62.0,129.0,91.0,2025-10-03,17
India,Karnataka,Bengaluru,"Hombegowda Nagar, Bengaluru - KSPCB",2025-10-03 17:00:00,12.938539,77.5901,NH3,2.0,4.0,3.0,2025-10-03,17
India,Haryana,Charkhi Dadri,"Mini Secretariat, Charkhi Dadri - HSPCB",2025-10-03 17:00:00,28.593883,76.270653,CO,12.0,25.0,16.0,2025-10-03,17
India,Haryana,Charkhi Dadri,"Mini Secretariat, Charkhi Dadri - HSPCB",2025-10-03 17:00:00,28.593883,76.270653,OZONE,15.0,18.0,16.0,2025-10-03,17
India,Haryana,Faridabad,"New Industrial Town, Faridabad - HSPCB",2025-10-03 17:00:00,28.39072,77.30059,PM10,88.0,135.0,109.0,2025-10-03,17
India,Haryana,Faridabad,"Sector 11, Faridabad - HSPCB",2025-10-03 17:00:00,28.376058,77.315741,PM2.5,44.0,49.0,46.0,2025-10-03,17
India,Haryana,Faridabad,"Sector 11, Faridabad - HSPCB",2025-10-03 17:00:00,28.376058,77.315741,PM10,53.0,59.0,55.0,2025-10-03,17
India,Haryana,Faridabad,"Sector 11, Faridabad - HSPCB",2025-10-03 17:00:00,28.376058,77.315741,NO2,30.0,32.0,31.0,2025-10-03,17
India,Gujarat,Ankleshwar,"GIDC, Ankleshwar - GPCB",2025-10-03 17:00:00,21.613267,73.010555,NO2,77.0,112.0,96.0,2025-10-03,17
India,Gujarat,Ankleshwar,"GIDC, Ankleshwar - GPCB",2025-10-03 17:00:00,21.613267,73.010555,NH3,4.0,7.0,5.0,2025-10-03,17
India,Gujarat,Gandhinagar,"GIFT City, Gandhinagar - IITM",2025-10-03 17:00:00,23.163798,72.677768,PM2.5,25.599043715846996,86.22131147540983,51.459016393442624,2025-10-03,17
India,Gujarat,Gandhinagar,"GIFT City, Gandhinagar - IITM",2025-10-03 17:00:00,23.163798,72.677768,PM10,25.599043715846996,86.22131147540983,51.459016393442624,2025-10-03,17
India,Gujarat,Gandhinagar,"GIFT City, Gandhinagar - IITM",2025-10-03 17:00:00,23.163798,72.677768,SO2,25.599043715846996,86.22131147540983,51.459016393442624,2025-10-03,17
India,Gujarat,Gandhinagar,"Sector-10, Gandhinagar - GPCB",2025-10-03 17:00:00,23.221714,72.654328,PM10,35.0,148.0,98.0,2025-10-03,17
India,Gujarat,Gandhinagar,"Sector-10, Gandhinagar - GPCB",2025-10-03 17:00:00,23.221714,72.654328,SO2,4.0,6.0,6.0,2025-10-03,17
India,Haryana,Panchgaon,"Amity University, Panchgaon - IITM",2025-10-03 17:00:00,28.3153,76.9143,OZONE,13.0,150.0,88.0,2025-10-03,17
India,Himachal Pradesh,Baddi,"HIMUDA Complex Phase-1, Baddi - HPPCB",2025-10-03 17:00:00,30.943887,76.801991,PM10,45.0,232.0,111.0,2025-10-03,17
India,Jammu_and_Kashmir,Srinagar,"Rajbagh, Srinagar - JKSPCB",2025-10-03 17:00:00,34.066206,74.81982,NO2,25.599043715846996,86.22131147540983,51.459016393442624,2025-10-03,17
India,Jammu_and_Kashmir,Srinagar,"Rajbagh, Srinagar - JKSPCB",2025-10-03 17:00:00,34.066206,74.81982,NH3,25.599043715846996,86.22131147540983,51.459016393442624,2025-10-03,17
India,Haryana,Gurugram,"NISE Gwal Pahari, Gurugram - IMD",2025-10-03 17:00:00,28.422681,77.148944,CO,34.0,50.0,41.0,2025-10-03,17
India,Haryana,Gurugram,"Sector-51, Gurugram - HSPCB",2025-10-03 17:00:00,28.4227,77.0667,NH3,6.0,10.0,8.0,2025-10-03,17
India,Haryana,Panchgaon,"Amity University, Panchgaon - IITM",2025-10-03 17:00:00,28.3153,76.9143,PM10,77.0,119.0,92.0,2025-10-03,17
India,Haryana,Panchgaon,"Amity University, Panchgaon - IITM",2025-10-03 17:00:00,28.3153,76.9143,NO2,61.0,69.0,65.0,2025-10-03,17
India,Jharkhand,Dhanbad,"Sardar Patel Nagar, Dhanbad - JSPCB",2025-10-03 17:00:00,23.80569,86.44268,CO,1.0,2.0,2.0,2025-10-03,17
India,Karnataka,Bengaluru,"BTM Layout, Bengaluru - CPCB",2025-10-03 17:00:00,12.9135218,77.5950804,PM10,60.0,111.0,86.0,2025-10-03,17
India,Gujarat,Ahmedabad,"SVPI Airport Hansol, Ahmedabad - IITM",2025-10-03 17:00:00,23.076793,72.627874,SO2,11.0,20.0,13.0,2025-10-03,17
India,Gujarat,Ahmedabad,"SVPI Airport Hansol, Ahmedabad - IITM",2025-10-03 17:00:00,23.076793,72.627874,CO,20.0,105.0,31.0,2025-10-03,17
India,Gujarat,Surat,"Science Center, Surat - SMC",2025-10-03 17:00:00,21.170046,72.795405,PM10,34.0,500.0,164.0,2025-10-03,17
India,Haryana,Faridabad,"Sector 30, Faridabad - HSPCB",2025-10-03 17:00:00,28.4417,77.3217,SO2,6.0,6.0,6.0,2025-10-03,17
India,Karnataka,Bengaluru,"Jigani, Bengaluru - KSPCB",2025-10-03 17:00:00,12.7816279,77.6299145,PM10,59.0,109.0,88.0,2025-10-03,17
India,Karnataka,Bengaluru,"Jigani, Bengaluru - KSPCB",2025-10-03 17:00:00,12.7816279,77.6299145,OZONE,23.0,32.0,27.0,2025-10-03,17
India,Karnataka,Bengaluru,"Kasturi Nagar, Bengaluru - KSPCB",2025-10-03 17:00:00,13.003872,77.664217,PM2.5,35.0,79.0,41.0,2025-10-03,17
India,Karnataka,Bengaluru,"Peenya, Bengaluru - CPCB",2025-10-03 17:00:00,13.0270199,77.494094,PM10,33.0,105.0,84.0,2025-10-03,17
India,Karnataka,Bengaluru,"Peenya, Bengaluru - CPCB",2025-10-03 17:00:00,13.0270199,77.494094,CO,1.0,50.0,5.0,2025-10-03,17
India,Karnataka,Bengaluru,"Peenya, Bengaluru - CPCB",2025-10-03 17:00:00,13.0270199,77.494094,OZONE,27.0,31.0,29.0,2025-10-03,17
India,Karnataka,Bengaluru,"RVCE-Mailasandra, Bengaluru - KSPCB",2025-10-03 17:00:00,12.921418,77.502466,PM2.5,55.0,57.0,56.0,2025-10-03,17
India,Karnataka,Madikeri,"Stuart Hill, Madikeri - KSPCB",2025-10-03 17:00:00,12.415911,75.73505,CO,5.0,125.0,10.0,2025-10-03,17
India,Karnataka,Mangalore,"Kadri, Mangalore - KSPCB",2025-10-03 17:00:00,12.88925,74.853,OZONE,26.0,27.0,27.0,2025-10-03,17
India,Karnataka,Raichur,"Haji Colony, Raichur - KSPCB",2025-10-03 17:00:00,16.208139,77.348417,PM2.5,25.599043715846996,86.22131147540983,51.459016393442624,2025-10-03,17
India,Karnataka,Chamarajanagar,"Urban, Chamarajanagar - KSPCB",2025-10-03 17:00:00,11.55358,76.55521,OZONE,26.0,35.0,30.0,2025-10-03,17
India,Karnataka,Chikkaballapur,"Chikkaballapur Rural, Chikkaballapur - KSPCB",2025-10-03 17:00:00,13.428828,77.731418,SO2,9.0,18.0,12.0,2025-10-03,17
India,Karnataka,Davanagere,"Devaraj Urs Badavane, Davanagere - KSPCB",2025-10-03 17:00:00,14.4758,75.9052,NH3,2.0,2.0,2.0,2025-10-03,17
India,Karnataka,Dharwad,"Kalabhavan, Dharwad - KSPCB",2025-10-03 17:00:00,15.459706,75.008381,PM2.5,50.0,73.0,58.0,2025-10-03,17
India,Karnataka,Koppal,"Diwator Nagar, Koppal - KSPCB",2025-10-03 17:00:00,15.34763,76.181767,PM10,47.0,100.0,78.0,2025-10-03,17
India,Karnataka,Koppal,"Diwator Nagar, Koppal - KSPCB",2025-10-03 17:00:00,15.34763,76.181767,CO,46.0,61.0,56.0,2025-10-03,17
India,Karnataka,Bidar,"Naubad, Bidar - KSPCB",2025-10-03 17:00:00,17.930306,77.482194,NO2,25.599043715846996,86.22131147540983,51.459016393442624,2025-10-03,17
India,Karnataka,Bidar,"Naubad, Bidar - KSPCB",2025-10-03 17:00:00,17.930306,77.482194,NH3,25.599043715846996,86.22131147540983,51.459016393442624,2025-10-03,17
India,Karnataka,Bengaluru,"Silk Board, Bengaluru - KSPCB",2025-10-03 17:00:00,12.917348,77.622813,CO,4.0,22.0,13.0,2025-10-03,17
India,Karnataka,Karwar,"KHB Colony, Karwar - KSPCB",2025-10-03 17:00:00,14.816666,74.141003,PM2.5,32.0,89.0,59.0,2025-10-03,17
India,Karnataka,Haveri,"Ashwini Nagar, Haveri - KSPCB",2025-10-03 17:00:00,14.7918,75.3896,OZONE,25.599043715846996,86.22131147540983,51.459016393442624,2025-10-03,17
India,Karnataka,Shivamogga,"Vinoba Nagara, Shivamogga - KSPCB",2025-10-03 17:00:00,13.94,75.555917,NH3,2.0,3.0,2.0,2025-10-03,17
India,Karnataka,Shivamogga,"Vinoba Nagara, Shivamogga - KSPCB",2025-10-03 17:00:00,13.94,75.555917,CO,10.0,33.0,25.0,2025-10-03,17
India,Karnataka,Tumakuru,"Thimmalapura, Tumakuru - KSPCB",2025-10-03 17:00:00,13.377516,77.099072,PM2.5,39.0,237.0,97.0,2025-10-03,17
India,Karnataka,Udupi,"Brahmagiri, Udupi - KSPCB",2025-10-03 17:00:00,13.34194444,74.74694444,PM2.5,45.0,92.0,74.0,2025-10-03,17
India,Madhya Pradesh,Bhopal,"Paryavaran Parisar, Bhopal - MPPCB",2025-10-03 17:00:00,23.210494,77.425409,NO2,5.0,87.0,32.0,2025-10-03,17
India,Madhya Pradesh,Bhopal,"Paryavaran Parisar, Bhopal - MPPCB",2025-10-03 17:00:00,23.210494,77.425409,NH3,2.0,33.0,6.0,2025-10-03,17
India,Madhya Pradesh,Bhopal,"T T Nagar, Bhopal - MPPCB",2025-10-03 17:00:00,23.233584,77.400574,PM10,51.0,101.0,77.0,2025-10-03,17
India,Madhya Pradesh,Bhopal,"T T Nagar, Bhopal - MPPCB",2025-10-03 17:00:00,23.233584,77.400574,SO2,14.0,43.0,25.0,2025-10-03,17
India,Madhya Pradesh,Bhopal,"T T Nagar, Bhopal - MPPCB",2025-10-03 17:00:00,23.233584,77.400574,CO,62.0,86.0,71.0,2025-10-03,17
India,Kerala,Kollam,"Polayathode, Kollam - Kerala PCB",2025-10-03 17:00:00,8.8787,76.6073,CO,14.0,17.0,16.0,2025-10-03,17
India,Kerala,Thiruvananthapuram,"Kariavattom, Thiruvananthapuram - Kerala PCB",2025-10-03 17:00:00,8.5637,76.8865,PM10,65.0,73.0,69.0,2025-10-03,17
India,Kerala,Thiruvananthapuram,"Kariavattom, Thiruvananthapuram - Kerala PCB",2025-10-03 17:00:00,8.5637,76.8865,CO,24.0,71.0,49.0,2025-10-03,17
India,Kerala,Kannur,"Thavakkara, Kannur - Kerala PCB",2025-10-03 17:00:00,11.875,75.3732,NH3,25.599043715846996,86.22131147540983,51.459016393442624,2025-10-03,17
India,Kerala,Kannur,"Thavakkara, Kannur - Kerala PCB",2025-10-03 17:00:00,11.875,75.3732,OZONE,27.0,32.0,30.0,2025-10-03,17
India,Kerala,Kollam,"Polayathode, Kollam - Kerala PCB",2025-10-03 17:00:00,8.8787,76.6073,NO2,8.0,10.0,9.0,2025-10-03,17
India,Madhya Pradesh,Dewas,"Bhopal Chauraha, Dewas - MPPCB",2025-10-03 17:00:00,22.9682591,76.064118,NH3,4.0,10.0,5.0,2025-10-03,17
India,Madhya Pradesh,Gwalior,"Deen Dayal Nagar, Gwalior - MPPCB",2025-10-03 17:00:00,26.259242,78.216432,PM2.5,52.0,315.0,143.0,2025-10-03,17
India,Kerala,Eloor,"Udyogamandal, Eloor - Kerala PCB",2025-10-03 17:00:00,10.073232,76.302765,SO2,25.599043715846996,86.22131147540983,51.459016393442624,2025-10-03,17
India,Kerala,Eloor,"Udyogamandal, Eloor - Kerala PCB",2025-10-03 17:00:00,10.073232,76.302765,CO,44.0,84.0,57.0,2025-10-03,17
India,Kerala,Kannur,"Thavakkara, Kannur - Kerala PCB",2025-10-03 17:00:00,11.875,75.3732,PM2.5,25.599043715846996,86.22131147540983,51.459016393442624,2025-10-03,17
India,Madhya Pradesh,Damoh,"Shrivastav Colony, Damoh - MPPCB",2025-10-03 17:00:00,23.81748678,79.446246,CO,20.0,26.0,22.0,2025-10-03,17
India,Madhya Pradesh,Gwalior,"Maharaj Bada, Gwalior - MPPCB",2025-10-03 17:00:00,26.200388,78.147714,PM10,53.0,145.0,96.0,2025-10-03,17
India,Madhya Pradesh,Bhopal,"Idgah Hills, Bhopal - MPPCB",2025-10-03 17:00:00,23.264759,77.381568,PM2.5,15.0,98.0,34.0,2025-10-03,17
India,Madhya Pradesh,Sagar,"Deen Dayal Nagar, Sagar - MPPCB",2025-10-03 17:00:00,23.8640158,78.80289321,PM2.5,25.599043715846996,86.22131147540983,51.459016393442624,2025-10-03,17
India,Madhya Pradesh,Sagar,"Deen Dayal Nagar, Sagar - MPPCB",2025-10-03 17:00:00,23.8640158,78.80289321,NO2,25.599043715846996,86.22131147540983,51.459016393442624,2025-10-03,17
India,Madhya Pradesh,Sagar,"Deen Dayal Nagar, Sagar - MPPCB",2025-10-03 17:00:00,23.8640158,78.80289321,SO2,25.599043715846996,86.22131147540983,51.459016393442624,2025-10-03,17
India,Madhya Pradesh,Sagar,"Deen Dayal Nagar, Sagar - MPPCB",2025-10-03 17:00:00,23.8640158,78.80289321,CO,35.0,48.0,40.0,2025-10-03,17
India,Madhya Pradesh,Satna,"Bandhavgar Colony, Satna - Birla Cement",2025-10-03 17:00:00,24.58434363,80.8549414,SO2,24.0,24.0,24.0,2025-10-03,17
India,Madhya Pradesh,Satna,"Bandhavgar Colony, Satna - Birla Cement",2025-10-03 17:00:00,24.58434363,80.8549414,CO,12.0,39.0,16.0,2025-10-03,17
India,Madhya Pradesh,Singrauli,"Suryakiran Bhawan NCL, Singrauli - MPPCB",2025-10-03 17:00:00,24.10897,82.64558,NH3,3.0,9.0,5.0,2025-10-03,17
India,Maharashtra,Amravati,"Shri Shivaji Science College, Amaravati - MPCB",2025-10-03 17:00:00,20.939198,77.765701,NO2,4.0,77.0,17.0,2025-10-03,17
India,Maharashtra,Amravati,"Shri Shivaji Science College, Amaravati - MPCB",2025-10-03 17:00:00,20.939198,77.765701,NH3,1.0,7.0,2.0,2025-10-03,17
India,Maharashtra,Amravati,"Shri Shivaji Science College, Amaravati - MPCB",2025-10-03 17:00:00,20.939198,77.765701,SO2,7.0,37.0,22.0,2025-10-03,17
India,Maharashtra,Aurangabad,"MIDC Chilkalthana, Aurangabad - MPCB",2025-10-03 17:00:00,19.87562,75.38731,CO,7.0,42.0,21.0,2025-10-03,17
India,Maharashtra,Aurangabad,"Rachnakar Colony, Aurangabad - MPCB",2025-10-03 17:00:00,19.863756,75.321188,NH3,2.0,4.0,3.0,2025-10-03,17
India,Madhya Pradesh,Jabalpur,"Govindh Bhavan Colony, Jabalpur - JMC",2025-10-03 17:00:00,23.163174,79.973061,PM2.5,7.0,40.0,14.0,2025-10-03,17
India,Madhya Pradesh,Jabalpur,"Marhatal, Jabalpur - MPPCB",2025-10-03 17:00:00,23.168606,79.932247,PM2.5,3.0,123.0,39.0,2025-10-03,17
India,Madhya Pradesh,Katni,"Gole Bazar, Katni - MPPCB",2025-10-03 17:00:00,23.50016,80.23284,PM2.5,25.0,47.0,35.0,2025-10-03,17
India,Madhya Pradesh,Maihar,"Sahilara, Maihar - KJS Cements",2025-10-03 17:00:00,24.2613009,80.7231783,PM10,18.0,87.0,38.0,2025-10-03,17
India,Madhya Pradesh,Mandideep,"Sector-D Industrial Area, Mandideep - MPPCB",2025-10-03 17:00:00,23.10844,77.511428,SO2,13.0,70.0,35.0,2025-10-03,17
India,Maharashtra,Badlapur,"Katrap, Badlapur - MPCB",2025-10-03 17:00:00,19.16485,73.23409,PM10,25.599043715846996,86.22131147540983,51.459016393442624,2025-10-03,17
India,Maharashtra,Badlapur,"Katrap, Badlapur - MPCB",2025-10-03 17:00:00,19.16485,73.23409,NH3,25.599043715846996,86.22131147540983,51.459016393442624,2025-10-03,17
India,Maharashtra,Belapur,"CBD Belapur, Belapur - MPCB",2025-10-03 17:00:00,19.0243902,73.0406721,CO,33.0,109.0,82.0,2025-10-03,17
India,Maharashtra,Bhiwandi,"Gokul Nagar, Bhiwandi - MPCB",2025-10-03 17:00:00,19.309073,73.057223,NO2,24.0,56.0,35.0,2025-10-03,17
India,Maharashtra,Chandrapur,"Chauhan Colony, Chandrapur - MPCB",2025-10-03 17:00:00,19.9629,79.298714,PM2.5,89.0,419.0,150.0,2025-10-03,17
India,Madhya Pradesh,Gwalior,"Maharaj Bada, Gwalior - MPPCB",2025-10-03 17:00:00,26.200388,78.147714,SO2,4.0,74.0,16.0,2025-10-03,17
India,Madhya Pradesh,Indore,"Airport Area, Indore - IMC",2025-10-03 17:00:00,22.7289,75.8076,SO2,15.0,16.0,15.0,2025-10-03,17
India,Madhya Pradesh,Sagar,"Civil Lines, Sagar - MPPCB",2025-10-03 17:00:00,23.838586,78.759431,PM10,7.0,77.0,31.0,2025-10-03,17
India,Maharashtra,Akola,"Ramdaspeth, Akola - MPCB",2025-10-03 17:00:00,20.719516,77.000253,PM2.5,39.0,224.0,85.0,2025-10-03,17
India,Maharashtra,Chandrapur,"MIDC Khutala, Chandrapur - MPCB",2025-10-03 17:00:00,19.9775302,79.2337086,CO,6.0,20.0,12.0,2025-10-03,17
India,Maharashtra,Dhule,"Deopur, Dhule - MPCB",2025-10-03 17:00:00,20.918946,74.776388,NO2,43.0,47.0,45.0,2025-10-03,17
India,Maharashtra,Dhule,"Deopur, Dhule - MPCB",2025-10-03 17:00:00,20.918946,74.776388,NH3,3.0,4.0,3.0,2025-10-03,17
India,Maharashtra,Dhule,"Deopur, Dhule - MPCB",2025-10-03 17:00:00,20.918946,74.776388,SO2,2.0,14.0,7.0,2025-10-03,17
India,Maharashtra,Jalna,"Old MIDC, Jalna - MPCB",2025-10-03 17:00:00,19.854616,75.905894,PM2.5,25.599043715846996,86.22131147540983,51.459016393442624,2025-10-03,17
India,Maharashtra,Jalna,"Old MIDC, Jalna - MPCB",2025-10-03 17:00:00,19.854616,75.905894,NO2,25.599043715846996,86.22131147540983,51.459016393442624,2025-10-03,17
India,Maharashtra,Jalna,"Old MIDC, Jalna - MPCB",2025-10-03 17:00:00,19.854616,75.905894,NH3,25.599043715846996,86.22131147540983,51.459016393442624,2025-10-03,17
India,Maharashtra,Jalna,"Old MIDC, Jalna - MPCB",2025-10-03 17:00:00,19.854616,75.905894,CO,14.0,16.0,15.0,2025-10-03,17
India,Maharashtra,Kolhapur,"Shivaji University, Kolhapur - MPCB",2025-10-03 17:00:00,16.6870449,74.2505872,NH3,9.0,14.0,11.0,2025-10-03,17
India,Maharashtra,Kolhapur,"Shivaji University, Kolhapur - MPCB",2025-10-03 17:00:00,16.6870449,74.2505872,CO,12.0,43.0,22.0,2025-10-03,17
India,Maharashtra,Kolhapur,"Sinchan Bhavan, Kolhapur - MPCB",2025-10-03 17:00:00,16.7143745,74.2426398,CO,15.0,32.0,28.0,2025-10-03,17
India,Maharashtra,Latur,"Sawe Wadi, Latur - MPCB",2025-10-03 17:00:00,18.39963,76.57452,CO,5.0,125.0,26.0,2025-10-03,17
India,Maharashtra,Latur,"Sawe Wadi, Latur - MPCB",2025-10-03 17:00:00,18.39963,76.57452,OZONE,11.0,116.0,73.0,2025-10-03,17
India,Maharashtra,Mahad,"Kamble Tarf Birwadi, Mahad - MPCB",2025-10-03 17:00:00,18.1023399,73.4783687,NH3,25.599043715846996,86.22131147540983,51.459016393442624,2025-10-03,17
India,Maharashtra,Malegaon,"Mahesh Nagar, Malegaon - MPCB",2025-10-03 17:00:00,20.555712,74.529236,NO2,17.0,41.0,28.0,2025-10-03,17
India,Maharashtra,Malegaon,"Mahesh Nagar, Malegaon - MPCB",2025-10-03 17:00:00,20.555712,74.529236,OZONE,3.0,90.0,55.0,2025-10-03,17
India,Maharashtra,Mira-Bhayandar,"Bhayandar West, Mira-Bhayandar - MPCB",2025-10-03 17:00:00,19.296481,72.840923,PM10,25.599043715846996,86.22131147540983,51.459016393442624,2025-10-03,17
India,Maharashtra,Mumbai,"Mazgaon, Mumbai - IITM",2025-10-03 17:00:00,18.96702,72.84214,NO2,25.0,96.0,63.0,2025-10-03,17
India,Maharashtra,Mumbai,"Mazgaon, Mumbai - IITM",2025-10-03 17:00:00,18.96702,72.84214,NH3,5.0,12.0,8.0,2025-10-03,17
India,Maharashtra,Mumbai,"Mindspace-Malad West, Mumbai - MPCB",2025-10-03 17:00:00,19.1878657,72.8304069,NO2,18.0,96.0,45.0,2025-10-03,17
India,Maharashtra,Mumbai,"Deonar, Mumbai - IITM",2025-10-03 17:00:00,19.04946,72.923,OZONE,72.0,72.0,72.0,2025-10-03,17
India,Maharashtra,Mumbai,"Malad West, Mumbai - IITM",2025-10-03 17:00:00,19.19709,72.82204,PM10,47.0,197.0,115.0,2025-10-03,17
India,Maharashtra,Mumbai,"Borivali East, Mumbai - IITM",2025-10-03 17:00:00,19.23241,72.86895,PM2.5,25.599043715846996,86.22131147540983,51.459016393442624,2025-10-03,17
India,Maharashtra,Mumbai,"Borivali East, Mumbai - MPCB",2025-10-03 17:00:00,19.2243333,72.8658113,PM2.5,33.0,147.0,76.0,2025-10-03,17
India,Maharashtra,Kalyan,"Pimpleshwar Mandir, Kalyan - MPCB",2025-10-03 17:00:00,19.192056,72.9585188,PM10,75.0,128.0,105.0,2025-10-03,17
India,Maharashtra,Kalyan,"Pimpleshwar Mandir, Kalyan - MPCB",2025-10-03 17:00:00,19.192056,72.9585188,SO2,3.0,47.0,17.0,2025-10-03,17
India,Maharashtra,Mumbai,"Borivali East, Mumbai - MPCB",2025-10-03 17:00:00,19.2243333,72.8658113,NH3,2.0,9.0,5.0,2025-10-03,17
India,Maharashtra,Mumbai,"Mulund West, Mumbai - MPCB",2025-10-03 17:00:00,19.175,72.9419,PM2.5,30.0,153.0,82.0,2025-10-03,17
India,Maharashtra,Nagpur,"Opp GPO Civil Lines, Nagpur - MPCB",2025-10-03 17:00:00,21.152875,79.0517531,NO2,10.0,93.0,31.0,2025-10-03,17
India,Maharashtra,Nagpur,"Ram Nagar, Nagpur - MPCB",2025-10-03 17:00:00,21.143383,79.048912,PM2.5,56.0,198.0,113.0,2025-10-03,17
India,Maharashtra,Nagpur,"Ram Nagar, Nagpur - MPCB",2025-10-03 17:00:00,21.143383,79.048912,NO2,12.0,101.0,30.0,2025-10-03,17
India,Maharashtra,Nanded,"Sneh Nagar, Nanded - MPCB",2025-10-03 17:00:00,19.173852,77.296291,PM10,26.0,130.0,98.0,2025-10-03,17
India,Maharashtra,Nanded,"Sneh Nagar, Nanded - MPCB",2025-10-03 17:00:00,19.173852,77.296291,OZONE,16.0,241.0,73.0,2025-10-03,17
India,Maharashtra,Nashik,"Gangapur Road, Nashik - MPCB",2025-10-03 17:00:00,20.0073285,73.7762427,NO2,25.599043715846996,86.22131147540983,51.459016393442624,2025-10-03,17
India,Maharashtra,Nashik,"Hirawadi, Nashik - MPCB",2025-10-03 17:00:00,20.021503,73.813844,PM10,72.0,175.0,124.0,2025-10-03,17
India,Maharashtra,Mumbai,"Sewri, Mumbai - BMC",2025-10-03 17:00:00,19.000084,72.85673,OZONE,1.0,43.0,27.0,2025-10-03,17
India,Maharashtra,Mumbai,"Shivaji Nagar, Mumbai - BMC",2025-10-03 17:00:00,19.060498,72.923356,PM2.5,35.0,246.0,110.0,2025-10-03,17
India,Maharashtra,Mumbai,"Shivaji Nagar, Mumbai - BMC",2025-10-03 17:00:00,19.060498,72.923356,NO2,1.0,52.0,23.0,2025-10-03,17
India,Maharashtra,Mumbai,"Siddharth Nagar-Worli, Mumbai - IITM",2025-10-03 17:00:00,19.000083,72.813993,NH3,2.0,3.0,2.0,2025-10-03,17
India,Maharashtra,Mumbai,"Sion, Mumbai - MPCB",2025-10-03 17:00:00,19.047,72.8746,NO2,7.0,11.0,8.0,2025-10-03,17
India,Maharashtra,Mumbai,"Vile Parle West, Mumbai - MPCB",2025-10-03 17:00:00,19.10861,72.83622,CO,56.0,66.0,58.0,2025-10-03,17
India,Maharashtra,Mumbai,"Worli, Mumbai - MPCB",2025-10-03 17:00:00,18.9936162,72.8128113,PM2.5,61.0,87.0,71.0,2025-10-03,17
India,Maharashtra,Nagpur,"Ambazari, Nagpur - MPCB",2025-10-03 17:00:00,21.121801,79.04952,PM2.5,45.0,142.0,86.0,2025-10-03,17
India,Maharashtra,Nagpur,"Ambazari, Nagpur - MPCB",2025-10-03 17:00:00,21.121801,79.04952,NO2,11.0,113.0,31.0,2025-10-03,17
India,Maharashtra,Nagpur,"Ambazari, Nagpur - MPCB",2025-10-03 17:00:00,21.121801,79.04952,NH3,1.0,18.0,5.0,2025-10-03,17
India,Maharashtra,Mumbai,"Mulund West, Mumbai - MPCB",2025-10-03 17:00:00,19.175,72.9419,NH3,3.0,4.0,3.0,2025-10-03,17
India,Maharashtra,Mumbai,"Navy Nagar-Colaba, Mumbai - IITM",2025-10-03 17:00:00,18.897756,72.81332,CO,20.0,94.0,79.0,2025-10-03,17
India,Maharashtra,Mumbai,"Powai, Mumbai - MPCB",2025-10-03 17:00:00,19.1375,72.915056,PM2.5,25.599043715846996,86.22131147540983,51.459016393442624,2025-10-03,17
India,Maharashtra,Mumbai,"Vasai West, Mumbai - MPCB",2025-10-03 17:00:00,19.3832,72.8204,PM10,25.599043715846996,86.22131147540983,51.459016393442624,2025-10-03,17
India,Maharashtra,Mumbai,"Vasai West, Mumbai - MPCB",2025-10-03 17:00:00,19.3832,72.8204,NH3,25.599043715846996,86.22131147540983,51.459016393442624,2025-10-03,17
India,Maharashtra,Mumbai,"Vile Parle West, Mumbai - MPCB",2025-10-03 17:00:00,19.10861,72.83622,NO2,67.0,95.0,82.0,2025-10-03,17
India,Maharashtra,Mumbai,"Vile Parle West, Mumbai - MPCB",2025-10-03 17:00:00,19.10861,72.83622,NH3,3.0,4.0,4.0,2025-10-03,17
India,Maharashtra,Nagpur,"Mahal, Nagpur - MPCB",2025-10-03 17:00:00,21.14472,79.107595,OZONE,39.0,113.0,84.0,2025-10-03,17
India,Maharashtra,Nagpur,"Opp GPO Civil Lines, Nagpur - MPCB",2025-10-03 17:00:00,21.152875,79.0517531,PM2.5,29.0,141.0,76.0,2025-10-03,17
India,Maharashtra,Nashik,"Pandav Nagari, Nashik - MPCB",2025-10-03 17:00:00,19.9591346,73.7788008,NH3,25.599043715846996,86.22131147540983,51.459016393442624,2025-10-03,17
India,Maharashtra,Nashik,"Pandav Nagari, Nashik - MPCB",2025-10-03 17:00:00,19.9591346,73.7788008,CO,20.0,25.0,22.0,2025-10-03,17
India,Maharashtra,Nashik,"MIDC Ambad, Nashik - MPCB",2025-10-03 17:00:00,19.95022,73.73148,NH3,25.599043715846996,86.22131147540983,51.459016393442624,2025-10-03,17
India,Maharashtra,Nashik,"MIDC Ambad, Nashik - MPCB",2025-10-03 17:00:00,19.95022,73.73148,CO,12.0,60.0,19.0,2025-10-03,17
India,Maharashtra,Mumbai,"Powai, Mumbai - MPCB",2025-10-03 17:00:00,19.1375,72.915056,SO2,26.0,43.0,30.0,2025-10-03,17
India,Maharashtra,Pune,"Savitribai Phule Pune University, Pune - MPCB",2025-10-03 17:00:00,18.547056,73.826908,NO2,25.599043715846996,86.22131147540983,51.459016393442624,2025-10-03,17
India,Maharashtra,Pune,"Savitribai Phule Pune University, Pune - MPCB",2025-10-03 17:00:00,18.547056,73.826908,CO,14.0,121.0,41.0,2025-10-03,17
India,Maharashtra,Pune,"Transport Nagar-Nigdi, Pune - IITM",2025-10-03 17:00:00,18.664282,73.763966,NO2,16.0,42.0,27.0,2025-10-03,17
India,Maharashtra,Pune,"Transport Nagar-Nigdi, Pune - IITM",2025-10-03 17:00:00,18.664282,73.763966,OZONE,1.0,94.0,69.0,2025-10-03,17
India,Maharashtra,Pune,"Katraj Dairy, Pune - MPCB",2025-10-03 17:00:00,18.45445,73.854155,PM10,46.0,125.0,97.0,2025-10-03,17
India,Maharashtra,Pune,"Katraj Dairy, Pune - MPCB",2025-10-03 17:00:00,18.45445,73.854155,SO2,3.0,91.0,10.0,2025-10-03,17
India,Maharashtra,Pune,"Revenue Colony-Shivajinagar, Pune - IITM",2025-10-03 17:00:00,18.530085,73.849598,CO,24.0,110.0,58.0,2025-10-03,17
India,Maharashtra,Pimpri-Chinchwad,"Gavalinagar, Pimpri Chinchwad - MPCB",2025-10-03 17:00:00,18.63673,73.82487,OZONE,1.0,74.0,48.0,2025-10-03,17
India,Maharashtra,Pimpri-Chinchwad,"Park Street Wakad, Pimpri Chinchwad - MPCB",2025-10-03 17:00:00,18.59051,73.77946,PM10,75.0,189.0,121.0,2025-10-03,17
India,Maharashtra,Navi Mumbai,"Tondare-Taloja, Navi Mumbai - MPCB",2025-10-03 17:00:00,19.063,73.1209,PM10,57.0,174.0,114.0,2025-10-03,17
India,Maharashtra,Navi Mumbai,"Tondare-Taloja, Navi Mumbai - MPCB",2025-10-03 17:00:00,19.063,73.1209,NH3,9.0,13.0,11.0,2025-10-03,17
India,Maharashtra,Navi Mumbai,"Tondare-Taloja, Navi Mumbai - MPCB",2025-10-03 17:00:00,19.063,73.1209,OZONE,1.0,80.0,32.0,2025-10-03,17
India,Maharashtra,Navi Mumbai,"Sanpada, Navi Mumbai - MPCB",2025-10-03 17:00:00,19.0575752,73.0151367,NH3,25.599043715846996,86.22131147540983,51.459016393442624,2025-10-03,17
India,Maharashtra,Navi Mumbai,"Sector-2E Kalamboli, Navi Mumbai - MPCB",2025-10-03 17:00:00,19.02579,73.10297,NO2,22.0,110.0,59.0,2025-10-03,17
India,Maharashtra,Pune,"Bhosari, Pune - IITM",2025-10-03 17:00:00,18.640051,73.848956,CO,15.0,78.0,51.0,2025-10-03,17
India,Maharashtra,Pune,"Bhumkar Nagar, Pune - IITM",2025-10-03 17:00:00,18.60577,73.749976,CO,52.0,128.0,79.0,2025-10-03,17
India,Maharashtra,Navi Mumbai,"Mahape, Navi Mumbai - MPCB",2025-10-03 17:00:00,19.1135051,73.008978,PM2.5,25.599043715846996,86.22131147540983,51.459016393442624,2025-10-03,17
India,Maharashtra,Navi Mumbai,"Mahape, Navi Mumbai - MPCB",2025-10-03 17:00:00,19.1135051,73.008978,PM10,25.599043715846996,86.22131147540983,51.459016393442624,2025-10-03,17
India,Maharashtra,Parbhani,"Masoom Colony, Parbhani - MPCB",2025-10-03 17:00:00,19.265594,76.761463,NH3,3.0,11.0,8.0,2025-10-03,17
India,Maharashtra,Sangli,"Vijay Nagar, Sangli - MPCB",2025-10-03 17:00:00,16.5038,74.3623,NH3,1.0,6.0,2.0,2025-10-03,17
India,Maharashtra,Thane,"Upvan Fort, Thane - MPCB",2025-10-03 17:00:00,19.222279,72.957979,OZONE,2.0,172.0,86.0,2025-10-03,17
India,Maharashtra,Ulhasnagar,"Sidhi Vinayak Nagar, Ulhasnagar - MPCB",2025-10-03 17:00:00,19.235581,73.159121,PM2.5,55.0,161.0,97.0,2025-10-03,17
India,Maharashtra,Ulhasnagar,"Sidhi Vinayak Nagar, Ulhasnagar - MPCB",2025-10-03 17:00:00,19.235581,73.159121,NO2,19.0,58.0,40.0,2025-10-03,17
India,Maharashtra,Virar,"Bolinj, Virar - MPCB",2025-10-03 17:00:00,19.445821,72.7988231,PM10,39.0,114.0,78.0,2025-10-03,17
India,Maharashtra,Virar,"Bolinj, Virar - MPCB",2025-10-03 17:00:00,19.445821,72.7988231,NH3,1.0,3.0,3.0,2025-10-03,17
India,Maharashtra,Virar,"Bolinj, Virar - MPCB",2025-10-03 17:00:00,19.445821,72.7988231,CO,14.0,106.0,49.0,2025-10-03,17
India,Manipur,Imphal,"DM College of Science, Imphal - Manipur PCB",2025-10-03 17:00:00,24.8207389,93.9423085,PM10,25.599043715846996,86.22131147540983,51.459016393442624,2025-10-03,17
India,Maharashtra,Solapur,"Dnyaneshwar Nagar, Solapur - MPCB",2025-10-03 17:00:00,17.6336264,75.9132495,PM2.5,25.599043715846996,86.22131147540983,51.459016393442624,2025-10-03,17
India,Maharashtra,Solapur,"Dnyaneshwar Nagar, Solapur - MPCB",2025-10-03 17:00:00,17.6336264,75.9132495,CO,14.0,92.0,15.0,2025-10-03,17
India,Maharashtra,Solapur,"Solapur, Solapur - MPCB",2025-10-03 17:00:00,17.6599188,75.9063906,PM2.5,67.0,99.0,72.0,2025-10-03,17
India,Maharashtra,Thane,"Kasarvadavali, Thane - MPCB",2025-10-03 17:00:00,19.26777,72.97182,CO,12.0,88.0,36.0,2025-10-03,17
India,Maharashtra,Thane,"Kasarvadavali, Thane - MPCB",2025-10-03 17:00:00,19.26777,72.97182,OZONE,1.0,164.0,84.0,2025-10-03,17
India,Maharashtra,Thane,"Upvan Fort, Thane - MPCB",2025-10-03 17:00:00,19.222279,72.957979,PM2.5,57.0,176.0,102.0,2025-10-03,17
India,Odisha,Barbil,"Forest Office, Barbil - OSPCB",2025-10-03 17:00:00,22.1166054,85.3945546,PM10,90.0,352.0,149.0,2025-10-03,17
India,Odisha,Barbil,"Forest Office, Barbil - OSPCB",2025-10-03 17:00:00,22.1166054,85.3945546,NO2,10.0,30.0,16.0,2025-10-03,17
India,Odisha,Baripada,"Meher Colony, Baripada - OSPCB",2025-10-03 17:00:00,21.941841,86.728318,PM10,79.0,111.0,97.0,2025-10-03,17
India,Mizoram,Aizawl,"Sikulpuikawn, Aizawl - Mizoram PCB",2025-10-03 17:00:00,23.7176342,92.7192841,NH3,1.0,2.0,1.0,2025-10-03,17
India,Nagaland,Kohima,"PWD Juction, Kohima - NPCB",2025-10-03 17:00:00,25.6635413,94.0989878,PM2.5,74.0,262.0,158.0,2025-10-03,17
India,Manipur,Imphal,"DM College of Science, Imphal - Manipur PCB",2025-10-03 17:00:00,24.8207389,93.9423085,NO2,25.599043715846996,86.22131147540983,51.459016393442624,2025-10-03,17
India,Manipur,Imphal,"DM College of Science, Imphal - Manipur PCB",2025-10-03 17:00:00,24.8207389,93.9423085,NH3,25.599043715846996,86.22131147540983,51.459016393442624,2025-10-03,17
India,Manipur,Imphal,"DM College of Science, Imphal - Manipur PCB",2025-10-03 17:00:00,24.8207389,93.9423085,SO2,25.599043715846996,86.22131147540983,51.459016393442624,2025-10-03,17
India,Odisha,Baripada,"Meher Colony, Baripada - OSPCB",2025-10-03 17:00:00,21.941841,86.728318,NH3,2.0,6.0,5.0,2025-10-03,17
India,Odisha,Baripada,"Meher Colony, Baripada - OSPCB",2025-10-03 17:00:00,21.941841,86.728318,SO2,2.0,60.0,23.0,2025-10-03,17
India,Meghalaya,Shillong,"JN Stadium, Shillong - Meghalaya PCB",2025-10-03 17:00:00,25.5803419,91.8942571,CO,28.0,78.0,38.0,2025-10-03,17
India,Odisha,Bileipada,"Tata Township, Bileipada - OSPCB",2025-10-03 17:00:00,22.06156703,85.47409613,SO2,38.0,41.0,38.0,2025-10-03,17
India,Odisha,Bhubaneswar,"Patia, Bhubaneswar - OSPCB",2025-10-03 17:00:00,20.34652,85.8163,PM10,69.0,163.0,103.0,2025-10-03,17
India,Odisha,Nayagarh,"Dabuna, Nayagarh - OSPCB",2025-10-03 17:00:00,21.847279,85.416905,SO2,8.0,23.0,11.0,2025-10-03,17
India,Odisha,Nayagarh,"Dabuna, Nayagarh - OSPCB",2025-10-03 17:00:00,21.847279,85.416905,OZONE,6.0,114.0,47.0,2025-10-03,17
India,Odisha,Rairangpur,"Divisional Forest Office, Rairangpur - OSPCB",2025-10-03 17:00:00,22.265816,86.174829,NH3,25.599043715846996,86.22131147540983,51.459016393442624,2025-10-03,17
India,Odisha,Rairangpur,"Divisional Forest Office, Rairangpur - OSPCB",2025-10-03 17:00:00,22.265816,86.174829,SO2,3.0,16.0,10.0,2025-10-03,17
India,Odisha,Rairangpur,"Divisional Forest Office, Rairangpur - OSPCB",2025-10-03 17:00:00,22.265816,86.174829,OZONE,1.0,169.0,22.0,2025-10-03,17
India,Odisha,Rourkela,"Fertilizer Township, Rourkela - OSPCB",2025-10-03 17:00:00,22.18972222,84.86277778,NO2,25.599043715846996,86.22131147540983,51.459016393442624,2025-10-03,17
India,Odisha,Rourkela,"Raghunathpali, Rourkela - OSPCB",2025-10-03 17:00:00,22.220833,84.809444,NH3,2.0,2.0,2.0,2025-10-03,17
India,Odisha,Rourkela,"Raghunathpali, Rourkela - OSPCB",2025-10-03 17:00:00,22.220833,84.809444,OZONE,4.0,90.0,59.0,2025-10-03,17
India,Odisha,Talcher,"Talcher Coalfields,Talcher - OSPCB",2025-10-03 17:00:00,20.9360711,85.1707021,SO2,9.0,34.0,22.0,2025-10-03,17
India,Odisha,Tensa,"Barsua Iron Ore Mines, Tensa - OSPCB",2025-10-03 17:00:00,21.869985,85.167016,NO2,55.0,97.0,81.0,2025-10-03,17
India,Odisha,Tensa,"Barsua Iron Ore Mines, Tensa - OSPCB",2025-10-03 17:00:00,21.869985,85.167016,SO2,35.0,40.0,37.0,2025-10-03,17
India,Puducherry,Puducherry,"Jawahar Nagar, Puducherry - PPCC",2025-10-03 17:00:00,11.9309,79.8027,SO2,4.0,13.0,7.0,2025-10-03,17
India,Punjab,Bathinda,"Hardev Nagar, Bathinda - PPCB",2025-10-03 17:00:00,30.233011,74.907758,SO2,7.0,22.0,14.0,2025-10-03,17
India,Punjab,Jalandhar,"Civil Line, Jalandhar - PPCB",2025-10-03 17:00:00,31.321907,75.578914,PM2.5,47.0,127.0,71.0,2025-10-03,17
India,Punjab,Jalandhar,"Civil Line, Jalandhar - PPCB",2025-10-03 17:00:00,31.321907,75.578914,PM10,73.0,114.0,98.0,2025-10-03,17
India,Punjab,Jalandhar,"Civil Line, Jalandhar - PPCB",2025-10-03 17:00:00,31.321907,75.578914,CO,28.0,39.0,35.0,2025-10-03,17
India,Odisha,Cuttack,"CDA Area, Cuttack - OSPCB",2025-10-03 17:00:00,20.48891,85.84768,SO2,3.0,5.0,4.0,2025-10-03,17
India,Odisha,Keonjhar,"Jagamohanpur, Keonjhar - OSPCB",2025-10-03 17:00:00,21.6439,85.599355,PM10,73.0,114.0,94.0,2025-10-03,17
India,Odisha,Brajrajnagar,"GM Office, Brajrajnagar - OSPCB",2025-10-03 17:00:00,21.8004996,83.8396977,NH3,7.0,7.0,7.0,2025-10-03,17
India,Odisha,Brajrajnagar,"GM Office, Brajrajnagar - OSPCB",2025-10-03 17:00:00,21.8004996,83.8396977,CO,38.0,68.0,54.0,2025-10-03,17
India,Odisha,Byasanagar,"Ferro Chrome Colony, Byasanagar - OSPCB",2025-10-03 17:00:00,20.94185,86.1151,OZONE,14.0,150.0,117.0,2025-10-03,17
India,Odisha,Byasanagar,"Ferro Chrome Colony, Byasanagar - OSPCB",2025-10-03 17:00:00,20.94185,86.1151,NO2,1.0,16.0,6.0,2025-10-03,17
India,Punjab,Amritsar,"Golden Temple, Amritsar - PPCB",2025-10-03 17:00:00,31.62,74.876512,SO2,10.0,101.0,41.0,2025-10-03,17
India,Odisha,Nayagarh,"Dabuna, Nayagarh - OSPCB",2025-10-03 17:00:00,21.847279,85.416905,NO2,25.599043715846996,86.22131147540983,51.459016393442624,2025-10-03,17
India,Rajasthan,Barmer,"Railway Colony, Barmer - RSPCB",2025-10-03 17:00:00,25.747299,71.393989,SO2,6.0,24.0,12.0,2025-10-03,17
India,Rajasthan,Barmer,"Railway Colony, Barmer - RSPCB",2025-10-03 17:00:00,25.747299,71.393989,OZONE,29.0,88.0,73.0,2025-10-03,17
India,Rajasthan,Bharatpur,"Krishna Nagar, Bharatpur - RSPCB",2025-10-03 17:00:00,27.215415,77.50873,PM10,63.0,125.0,88.0,2025-10-03,17
India,Rajasthan,Bhilwara,"Pratap Nagar, Bhilwara - RSPCB",2025-10-03 17:00:00,25.339605,74.618883,SO2,15.0,80.0,41.0,2025-10-03,17
India,Rajasthan,Bhiwadi,"RIICO Ind. Area III, Bhiwadi - RSPCB",2025-10-03 17:00:00,28.194909,76.862296,NH3,10.0,17.0,12.0,2025-10-03,17
India,Rajasthan,Bhiwadi,"Vasundhara Nagar_UIT, Bhiwadi - RSPCB",2025-10-03 17:00:00,28.207266,76.829265,NO2,21.0,81.0,51.0,2025-10-03,17
India,Rajasthan,Bhiwadi,"Vasundhara Nagar_UIT, Bhiwadi - RSPCB",2025-10-03 17:00:00,28.207266,76.829265,OZONE,19.0,203.0,93.0,2025-10-03,17
India,Rajasthan,Bikaner,"MM Ground, Bikaner - RSPCB",2025-10-03 17:00:00,28.018792,73.292658,PM10,41.0,374.0,143.0,2025-10-03,17
India,Rajasthan,Bikaner,"MM Ground, Bikaner - RSPCB",2025-10-03 17:00:00,28.018792,73.292658,NO2,13.0,109.0,48.0,2025-10-03,17
India,Rajasthan,Bikaner,"MM Ground, Bikaner - RSPCB",2025-10-03 17:00:00,28.018792,73.292658,OZONE,9.0,92.0,70.0,2025-10-03,17
India,Punjab,Rupnagar,"Ratanpura, Rupnagar - Ambuja Cements",2025-10-03 17:00:00,31.0325454,76.5623046,NO2,14.0,21.0,16.0,2025-10-03,17
India,Rajasthan,Ajmer,"Civil Lines,  Ajmer - RSPCB",2025-10-03 17:00:00,26.470859,74.646594,PM10,56.0,174.0,106.0,2025-10-03,17
India,Rajasthan,Ajmer,"Civil Lines,  Ajmer - RSPCB",2025-10-03 17:00:00,26.470859,74.646594,NO2,36.0,54.0,47.0,2025-10-03,17
India,Rajasthan,Ajmer,"Civil Lines,  Ajmer - RSPCB",2025-10-03 17:00:00,26.470859,74.646594,SO2,9.0,15.0,12.0,2025-10-03,17
India,Rajasthan,Ajmer,"Civil Lines,  Ajmer - RSPCB",2025-10-03 17:00:00,26.470859,74.646594,CO,11.0,100.0,37.0,2025-10-03,17
India,Rajasthan,Ajmer,"Civil Lines,  Ajmer - RSPCB",2025-10-03 17:00:00,26.470859,74.646594,OZONE,19.0,58.0,49.0,2025-10-03,17
India,Rajasthan,Alwar,"Moti Doongri, Alwar - RSPCB",2025-10-03 17:00:00,27.554793,76.611536,PM10,70.0,119.0,92.0,2025-10-03,17
India,Punjab,Ludhiana,"Punjab Agricultural University, Ludhiana - PPCB",2025-10-03 17:00:00,30.9028,75.8086,NO2,25.0,27.0,26.0,2025-10-03,17
India,Punjab,Ludhiana,"Punjab Agricultural University, Ludhiana - PPCB",2025-10-03 17:00:00,30.9028,75.8086,SO2,14.0,42.0,23.0,2025-10-03,17
India,Rajasthan,Chittorgarh,"Shastri Nagar, Chittorgarh - RSPCB",2025-10-03 17:00:00,24.892047,74.623527,OZONE,2.0,153.0,151.0,2025-10-03,17
India,Rajasthan,Bundi,"New Colony, Bundi - RSPCB",2025-10-03 17:00:00,25.435774,75.644272,OZONE,11.0,107.0,87.0,2025-10-03,17
India,Rajasthan,Banswara,"Rati Talai, Banswara - RSPCB",2025-10-03 17:00:00,23.55519,74.44001,NH3,4.0,8.0,6.0,2025-10-03,17
India,Punjab,Patiala,"Model Town, Patiala - PPCB",2025-10-03 17:00:00,30.349388,76.366642,CO,22.0,105.0,43.0,2025-10-03,17
India,Rajasthan,Jodhpur,"Digari Kalan, Jodhpur - RSPCB",2025-10-03 17:00:00,26.29581,73.082283,CO,14.0,57.0,25.0,2025-10-03,17
India,Rajasthan,Jodhpur,"Digari Kalan, Jodhpur - RSPCB",2025-10-03 17:00:00,26.29581,73.082283,OZONE,2.0,70.0,57.0,2025-10-03,17
India,Rajasthan,Jodhpur,"Jhalamand, Jodhpur - RSPCB",2025-10-03 17:00:00,26.215415,73.070156,NO2,6.0,98.0,39.0,2025-10-03,17
India,Rajasthan,Jodhpur,"Mandor, Jodhpur - RSPCB",2025-10-03 17:00:00,26.358805,73.047444,OZONE,11.0,94.0,68.0,2025-10-03,17
India,Rajasthan,Jodhpur,"Samrat Ashok Udhyan, Jodhpur - RSPCB",2025-10-03 17:00:00,26.253384,72.976571,SO2,3.0,29.0,10.0,2025-10-03,17
India,Rajasthan,Jodhpur,"Samrat Ashok Udhyan, Jodhpur - RSPCB",2025-10-03 17:00:00,26.253384,72.976571,CO,12.0,72.0,29.0,2025-10-03,17
India,Rajasthan,Jodhpur,"Samrat Ashok Udhyan, Jodhpur - RSPCB",2025-10-03 17:00:00,26.253384,72.976571,OZONE,8.0,171.0,116.0,2025-10-03,17
India,Rajasthan,Karauli,"Satyawati Vihar, Karauli - RSPCB",2025-10-03 17:00:00,26.506177,77.025989,NO2,13.0,56.0,24.0,2025-10-03,17
India,Rajasthan,Jalore,"Mudtra Sili, Jalore - RSPCB",2025-10-03 17:00:00,25.344694,72.626208,SO2,2.0,8.0,4.0,2025-10-03,17
India,Rajasthan,Jhalawar,"Rajlaxmi Nagar, Jhalawar - RSPCB",2025-10-03 17:00:00,24.588397,76.172782,PM10,34.0,130.0,62.0,2025-10-03,17
India,Rajasthan,Jhalawar,"Rajlaxmi Nagar, Jhalawar - RSPCB",2025-10-03 17:00:00,24.588397,76.172782,NO2,10.0,84.0,27.0,2025-10-03,17
India,Rajasthan,Jhalawar,"Rajlaxmi Nagar, Jhalawar - RSPCB",2025-10-03 17:00:00,24.588397,76.172782,SO2,5.0,18.0,7.0,2025-10-03,17
India,Rajasthan,Jhunjhunu,"Indra Nagar, Jhunjhunu - RSPCB",2025-10-03 17:00:00,28.108988,75.386577,PM10,68.0,263.0,111.0,2025-10-03,17
India,Rajasthan,Jhunjhunu,"Indra Nagar, Jhunjhunu - RSPCB",2025-10-03 17:00:00,28.108988,75.386577,NO2,9.0,63.0,28.0,2025-10-03,17
India,Rajasthan,Jodhpur,"Collectorate, Jodhpur - RSPCB",2025-10-03 17:00:00,26.268249,73.0193853,PM10,15.0,309.0,113.0,2025-10-03,17
India,Rajasthan,Jaipur,"Sector-2 Murlipura, Jaipur - RSPCB",2025-10-03 17:00:00,26.960669,75.771817,PM10,37.0,121.0,86.0,2025-10-03,17
India,Rajasthan,Jaipur,"Shastri Nagar, Jaipur - RSPCB",2025-10-03 17:00:00,26.9502929,75.730943,NH3,5.0,12.0,8.0,2025-10-03,17
India,Rajasthan,Jaipur,"Shastri Nagar, Jaipur - RSPCB",2025-10-03 17:00:00,26.9502929,75.730943,SO2,10.0,40.0,25.0,2025-10-03,17
India,Rajasthan,Jaipur,"Shastri Nagar, Jaipur - RSPCB",2025-10-03 17:00:00,26.9502929,75.730943,OZONE,37.0,70.0,55.0,2025-10-03,17
India,Rajasthan,Jaisalmer,"Sadar Bazar, Jaisalmer - RSPCB",2025-10-03 17:00:00,26.912329,70.909168,NO2,13.0,133.0,51.0,2025-10-03,17
India,Rajasthan,Dholpur,"Raja Ganj, Dholpur - RSPCB",2025-10-03 17:00:00,26.699557,77.898881,NO2,8.0,18.0,13.0,2025-10-03,17
India,Rajasthan,Dholpur,"Raja Ganj, Dholpur - RSPCB",2025-10-03 17:00:00,26.699557,77.898881,CO,22.0,43.0,28.0,2025-10-03,17
India,Rajasthan,Dholpur,"Raja Ganj, Dholpur - RSPCB",2025-10-03 17:00:00,26.699557,77.898881,OZONE,45.0,103.0,82.0,2025-10-03,17
India,Rajasthan,Dungarpur,"Bhoiwada, Dungarpur - RSPCB",2025-10-03 17:00:00,23.837789,73.714926,NO2,7.0,102.0,30.0,2025-10-03,17
India,Rajasthan,Dungarpur,"Bhoiwada, Dungarpur - RSPCB",2025-10-03 17:00:00,23.837789,73.714926,CO,16.0,109.0,32.0,2025-10-03,17
India,Rajasthan,Jaipur,"RIICO Sitapura, Jaipur - RSPCB",2025-10-03 17:00:00,26.786682,75.827928,PM2.5,18.0,312.0,103.0,2025-10-03,17
India,Rajasthan,Jaipur,"RIICO Sitapura, Jaipur - RSPCB",2025-10-03 17:00:00,26.786682,75.827928,SO2,9.0,18.0,13.0,2025-10-03,17
India,Rajasthan,Kota,"Dhanmandi, Kota - RSPCB",2025-10-03 17:00:00,25.16409,75.858137,PM2.5,19.0,198.0,78.0,2025-10-03,17
India,Rajasthan,Kota,"Dhanmandi, Kota - RSPCB",2025-10-03 17:00:00,25.16409,75.858137,NH3,6.0,9.0,8.0,2025-10-03,17
India,Rajasthan,Hanumangarh,"Housing Board, Hanumangarh - RSPCB",2025-10-03 17:00:00,29.61075,74.283608,NO2,13.0,31.0,23.0,2025-10-03,17
India,Rajasthan,Hanumangarh,"Housing Board, Hanumangarh - RSPCB",2025-10-03 17:00:00,29.61075,74.283608,SO2,15.0,30.0,18.0,2025-10-03,17
India,Rajasthan,Dausa,"Khatikan Mohalla, Dausa - RSPCB",2025-10-03 17:00:00,26.895552,76.334753,NO2,10.0,109.0,30.0,2025-10-03,17
India,Rajasthan,Churu,"Subash Chowk, Churu - RSPCB",2025-10-03 17:00:00,28.296139,74.961696,SO2,2.0,13.0,9.0,2025-10-03,17
India,TamilNadu,Chennai,"Velachery Res. Area, Chennai - CPCB",2025-10-03 17:00:00,13.0052189,80.2398125,PM10,36.0,69.0,53.0,2025-10-03,17
India,TamilNadu,Chennai,"Velachery Res. Area, Chennai - CPCB",2025-10-03 17:00:00,13.0052189,80.2398125,NH3,4.0,4.0,4.0,2025-10-03,17
India,TamilNadu,Chennai,"Velachery Res. Area, Chennai - CPCB",2025-10-03 17:00:00,13.0052189,80.2398125,SO2,7.0,9.0,8.0,2025-10-03,17
India,TamilNadu,Chennai,"Velachery Res. Area, Chennai - CPCB",2025-10-03 17:00:00,13.0052189,80.2398125,CO,30.0,30.0,30.0,2025-10-03,17
India,TamilNadu,Coimbatore,"PSG College of Arts and Science, Coimbatore - TNPCB",2025-10-03 17:00:00,11.0328,77.0349,PM2.5,25.599043715846996,86.22131147540983,51.459016393442624,2025-10-03,17
India,TamilNadu,Coimbatore,"PSG College of Arts and Science, Coimbatore - TNPCB",2025-10-03 17:00:00,11.0328,77.0349,NO2,7.0,11.0,10.0,2025-10-03,17
India,TamilNadu,Coimbatore,"SIDCO Kurichi, Coimbatore - TNPCB",2025-10-03 17:00:00,10.942451,76.978996,SO2,19.0,20.0,19.0,2025-10-03,17
India,TamilNadu,Chennai,"Manali Village, Chennai - TNPCB",2025-10-03 17:00:00,13.1662,80.2584,SO2,11.0,19.0,15.0,2025-10-03,17
India,TamilNadu,Chennai,"Manali, Chennai - CPCB",2025-10-03 17:00:00,13.164544,80.26285,PM10,47.0,82.0,62.0,2025-10-03,17
India,TamilNadu,Chennai,"Manali, Chennai - CPCB",2025-10-03 17:00:00,13.164544,80.26285,NH3,7.0,8.0,7.0,2025-10-03,17
India,TamilNadu,Chennai,"Perungudi, Chennai - TNPCB",2025-10-03 17:00:00,12.9533,80.2357,NH3,3.0,4.0,3.0,2025-10-03,17
India,TamilNadu,Chennai,"Royapuram, Chennai - TNPCB",2025-10-03 17:00:00,13.1036,80.2909,PM10,28.0,59.0,41.0,2025-10-03,17
India,Rajasthan,Tonk,"Shastri Nagar, Tonk - RSPCB",2025-10-03 17:00:00,26.159933,75.780517,NO2,13.0,46.0,26.0,2025-10-03,17
India,Rajasthan,Udaipur,"Ashok Nagar, Udaipur - RSPCB",2025-10-03 17:00:00,24.5886166,73.6321397,SO2,1.0,20.0,9.0,2025-10-03,17
India,TamilNadu,Ariyalur,"Keelapalur, Ariyalur - TNPCB",2025-10-03 17:00:00,11.06825,79.07033,NO2,10.0,10.0,10.0,2025-10-03,17
India,TamilNadu,Ariyalur,"Keelapalur, Ariyalur - TNPCB",2025-10-03 17:00:00,11.06825,79.07033,OZONE,8.0,20.0,14.0,2025-10-03,17
India,Rajasthan,Rajsamand,"Dhoinda, Rajsamand - RSPCB",2025-10-03 17:00:00,25.03636,73.883502,PM10,23.0,143.0,73.0,2025-10-03,17
India,Rajasthan,Rajsamand,"Dhoinda, Rajsamand - RSPCB",2025-10-03 17:00:00,25.03636,73.883502,NH3,8.0,39.0,20.0,2025-10-03,17
India,Rajasthan,Rajsamand,"Dhoinda, Rajsamand - RSPCB",2025-10-03 17:00:00,25.03636,73.883502,CO,11.0,66.0,20.0,2025-10-03,17
India,Rajasthan,Sawai Madhopur,"Sahu Nagar, Sawai Madhopur - RSPCB",2025-10-03 17:00:00,26.031443,76.359327,PM10,52.0,332.0,114.0,2025-10-03,17
India,Rajasthan,Sirohi,"Vedhaynath Colony, Sirohi - RSPCB",2025-10-03 17:00:00,24.885261,72.857549,NO2,10.0,104.0,44.0,2025-10-03,17
India,Rajasthan,Sri Ganganagar,"Old City, Sri Ganganagar - RSPCB",2025-10-03 17:00:00,29.931624,73.864511,PM10,119.0,277.0,166.0,2025-10-03,17
India,Rajasthan,Sri Ganganagar,"Old City, Sri Ganganagar - RSPCB",2025-10-03 17:00:00,29.931624,73.864511,SO2,2.0,14.0,6.0,2025-10-03,17
India,Rajasthan,Nagaur,"Karni Colony, Nagaur - RSPCB",2025-10-03 17:00:00,27.213494,73.734444,OZONE,2.0,96.0,63.0,2025-10-03,17
India,Rajasthan,Pali,"Indira Colony Vistar, Pali - RSPCB",2025-10-03 17:00:00,25.771061,73.340227,SO2,1.0,14.0,9.0,2025-10-03,17
India,Rajasthan,Kota,"Shrinath Puram, Kota - RSPCB",2025-10-03 17:00:00,25.14389,75.821256,CO,42.0,114.0,88.0,2025-10-03,17
India,Rajasthan,Nagaur,"Karni Colony, Nagaur - RSPCB",2025-10-03 17:00:00,27.213494,73.734444,SO2,6.0,34.0,12.0,2025-10-03,17
India,Rajasthan,Pratapgarh,"Pragati Nagar, Pratapgarh - RSPCB",2025-10-03 17:00:00,24.041198,74.780702,SO2,3.0,14.0,6.0,2025-10-03,17
India,Rajasthan,Pratapgarh,"Pragati Nagar, Pratapgarh - RSPCB",2025-10-03 17:00:00,24.041198,74.780702,OZONE,36.0,116.0,83.0,2025-10-03,17
India,TamilNadu,Chennai,"Arumbakkam, Chennai - TNPCB",2025-10-03 17:00:00,13.0664,80.2112,NO2,5.0,10.0,8.0,2025-10-03,17
India,TamilNadu,Palkalaiperur,"Bharathidasan University, Palkalaiperur - TNPCB",2025-10-03 17:00:00,10.681158,78.741746,NH3,3.0,3.0,3.0,2025-10-03,17
India,TamilNadu,Perundurai,"SIPCOT Industrial Park, Perundurai - TNPCB",2025-10-03 17:00:00,11.258242,77.552761,PM10,44.0,65.0,55.0,2025-10-03,17
India,TamilNadu,Perundurai,"SIPCOT Industrial Park, Perundurai - TNPCB",2025-10-03 17:00:00,11.258242,77.552761,SO2,18.0,18.0,18.0,2025-10-03,17
India,TamilNadu,Perundurai,"SIPCOT Industrial Park, Perundurai - TNPCB",2025-10-03 17:00:00,11.258242,77.552761,CO,40.0,46.0,43.0,2025-10-03,17
India,TamilNadu,Pudukottai,"SIPCOT Nathampannai, Pudukottai - TNPCB",2025-10-03 17:00:00,10.423417,78.784889,PM10,38.0,125.0,67.0,2025-10-03,17
India,TamilNadu,Pudukottai,"SIPCOT Nathampannai, Pudukottai - TNPCB",2025-10-03 17:00:00,10.423417,78.784889,NH3,2.0,3.0,3.0,2025-10-03,17
India,TamilNadu,Ramanathapuram,"Chalai Bazaar, Ramanathapuram - TNPCB",2025-10-03 17:00:00,9.36399,78.831977,PM10,11.0,63.0,38.0,2025-10-03,17
India,TamilNadu,Ramanathapuram,"Chalai Bazaar, Ramanathapuram - TNPCB",2025-10-03 17:00:00,9.36399,78.831977,NO2,3.0,4.0,3.0,2025-10-03,17
India,TamilNadu,Ramanathapuram,"Chalai Bazaar, Ramanathapuram - TNPCB",2025-10-03 17:00:00,9.36399,78.831977,CO,1.0,7.0,3.0,2025-10-03,17
India,TamilNadu,Ranipet,"VOC Nagar_SIPCOT, Ranipet - TNPCB",2025-10-03 17:00:00,12.952707,79.30394,PM2.5,25.599043715846996,86.22131147540983,51.459016393442624,2025-10-03,17
India,TamilNadu,Ranipet,"VOC Nagar_SIPCOT, Ranipet - TNPCB",2025-10-03 17:00:00,12.952707,79.30394,NH3,25.599043715846996,86.22131147540983,51.459016393442624,2025-10-03,17
India,TamilNadu,Salem,"Sona College of Technology, Salem - TNPCB",2025-10-03 17:00:00,11.679111,78.125052,NH3,3.0,3.0,3.0,2025-10-03,17
India,TamilNadu,Salem,"Sona College of Technology, Salem - TNPCB",2025-10-03 17:00:00,11.679111,78.125052,CO,12.0,36.0,31.0,2025-10-03,17
India,TamilNadu,Salem,"Sona College of Technology, Salem - TNPCB",2025-10-03 17:00:00,11.679111,78.125052,OZONE,16.0,17.0,16.0,2025-10-03,17
India,TamilNadu,Thanjavur,"Parisutham Nagar, Thanjavur - TNPCB",2025-10-03 17:00:00,10.7654824,79.1389968,PM2.5,36.0,83.0,63.0,2025-10-03,17
India,TamilNadu,Thanjavur,"Parisutham Nagar, Thanjavur - TNPCB",2025-10-03 17:00:00,10.7654824,79.1389968,CO,6.0,9.0,8.0,2025-10-03,17
India,TamilNadu,Thanjavur,"Parisutham Nagar, Thanjavur - TNPCB",2025-10-03 17:00:00,10.7654824,79.1389968,OZONE,7.0,22.0,14.0,2025-10-03,17
India,TamilNadu,Thoothukudi,"Meelavittan, Thoothukudi - TNPCB",2025-10-03 17:00:00,8.816428,78.099039,SO2,5.0,23.0,13.0,2025-10-03,17
India,TamilNadu,Tiruchirappalli,"St Joseph College, Tiruchirappalli - TNPCB",2025-10-03 17:00:00,10.830158,78.691849,NO2,8.0,11.0,9.0,2025-10-03,17
India,TamilNadu,Dindigul,"Mendonsa Colony, Dindigul - TNPCB",2025-10-03 17:00:00,10.358535,77.984321,SO2,18.0,22.0,21.0,2025-10-03,17
India,TamilNadu,Gummidipoondi,"Anthoni Pillai Nagar, Gummidipoondi - TNPCB",2025-10-03 17:00:00,13.4127,80.1081,NO2,17.0,52.0,33.0,2025-10-03,17
India,TamilNadu,Kanchipuram,"Kilambi, Kanchipuram - TNPCB",2025-10-03 17:00:00,12.864618,79.659968,PM2.5,22.0,69.0,35.0,2025-10-03,17
India,TamilNadu,Karur,"Kamadenu Nagar, Karur - TNPCB",2025-10-03 17:00:00,10.96782,78.080882,PM2.5,23.0,95.0,45.0,2025-10-03,17
India,TamilNadu,Karur,"Kamadenu Nagar, Karur - TNPCB",2025-10-03 17:00:00,10.96782,78.080882,SO2,33.0,40.0,37.0,2025-10-03,17
India,TamilNadu,Madurai,"Uchapatti, Madurai - TNPCB",2025-10-03 17:00:00,9.865935,78.022669,CO,12.0,34.0,12.0,2025-10-03,17
India,TamilNadu,Ooty,"Bombay Castel, Ooty - TNPCB",2025-10-03 17:00:00,11.4068288,76.7138973,PM2.5,25.599043715846996,86.22131147540983,51.459016393442624,2025-10-03,17
India,TamilNadu,Tiruchirappalli,"St Joseph College, Tiruchirappalli - TNPCB",2025-10-03 17:00:00,10.830158,78.691849,OZONE,8.0,23.0,11.0,2025-10-03,17
India,TamilNadu,Tirunelveli,"Municipal Corporation Office, Tirunelveli - TNPCB",2025-10-03 17:00:00,8.728442,77.6962,NO2,3.0,9.0,6.0,2025-10-03,17
India,TamilNadu,Tirunelveli,"Municipal Corporation Office, Tirunelveli - TNPCB",2025-10-03 17:00:00,8.728442,77.6962,CO,20.0,22.0,21.0,2025-10-03,17
India,TamilNadu,Vellore,"Vasanthapuram, Vellore - TNPCB",2025-10-03 17:00:00,12.909494,79.131861,NH3,1.0,1.0,1.0,2025-10-03,17
India,TamilNadu,Vellore,"Vasanthapuram, Vellore - TNPCB",2025-10-03 17:00:00,12.909494,79.131861,SO2,14.0,15.0,14.0,2025-10-03,17
India,TamilNadu,Vellore,"Vasanthapuram, Vellore - TNPCB",2025-10-03 17:00:00,12.909494,79.131861,CO,14.0,16.0,15.0,2025-10-03,17
India,TamilNadu,Virudhunagar,"Collectorate Office, Virudhunagar - TNPCB",2025-10-03 17:00:00,9.559382,77.948828,CO,20.0,27.0,22.0,2025-10-03,17
India,Telangana,Hyderabad,"ECIL Kapra, Hyderabad - TSPCB",2025-10-03 17:00:00,17.470431,78.566959,NO2,12.0,18.0,15.0,2025-10-03,17
India,Telangana,Hyderabad,"ICRISAT Patancheru, Hyderabad - TSPCB",2025-10-03 17:00:00,17.5184,78.278777,NH3,1.0,4.0,2.0,2025-10-03,17
India,Telangana,Hyderabad,"IDA Pashamylaram, Hyderabad - TSPCB",2025-10-03 17:00:00,17.5316895,78.218939,PM10,32.0,140.0,90.0,2025-10-03,17
India,Telangana,Hyderabad,"IDA Pashamylaram, Hyderabad - TSPCB",2025-10-03 17:00:00,17.5316895,78.218939,NO2,32.0,59.0,42.0,2025-10-03,17
India,Telangana,Hyderabad,"IDA Pashamylaram, Hyderabad - TSPCB",2025-10-03 17:00:00,17.5316895,78.218939,NH3,25.599043715846996,86.22131147540983,51.459016393442624,2025-10-03,17
India,Telangana,Hyderabad,"IITH Kandi, Hyderabad - TSPCB",2025-10-03 17:00:00,17.585705,78.126199,PM10,55.0,93.0,73.0,2025-10-03,17
India,Telangana,Hyderabad,"Nacharam_TSIIC IALA, Hyderabad - TSPCB",2025-10-03 17:00:00,17.429398,78.569354,OZONE,36.0,37.0,36.0,2025-10-03,17
India,Telangana,Hyderabad,"Nacharam_TSIIC IALA, Hyderabad - TSPCB",2025-10-03 17:00:00,17.429398,78.569354,NO2,11.0,11.0,11.0,2025-10-03,17
India,Telangana,Hyderabad,"IITH Kandi, Hyderabad - TSPCB",2025-10-03 17:00:00,17.585705,78.126199,SO2,14.0,16.0,16.0,2025-10-03,17
India,Uttar_Pradesh,Bulandshahr,"Yamunapuram, Bulandshahr - UPPCB",2025-10-03 17:00:00,28.406963,77.849831,PM2.5,56.0,220.0,112.0,2025-10-03,17
India,Uttar_Pradesh,Firozabad,"Nagla Bhau, Firozabad - UPPCB",2025-10-03 17:00:00,27.168897,78.37696,PM2.5,14.0,56.0,34.0,2025-10-03,17
India,Uttar_Pradesh,Firozabad,"Vibhab Nagar, Firozabad - UPPCB",2025-10-03 17:00:00,27.1594,78.3953,NO2,15.0,15.0,15.0,2025-10-03,17
India,Uttar_Pradesh,Firozabad,"Vibhab Nagar, Firozabad - UPPCB",2025-10-03 17:00:00,27.1594,78.3953,SO2,27.0,54.0,38.0,2025-10-03,17
India,Uttar_Pradesh,Firozabad,"Vibhab Nagar, Firozabad - UPPCB",2025-10-03 17:00:00,27.1594,78.3953,CO,6.0,16.0,11.0,2025-10-03,17
India,Uttar_Pradesh,Ghaziabad,"Indirapuram, Ghaziabad - UPPCB",2025-10-03 17:00:00,28.646233,77.358075,NO2,59.0,125.0,87.0,2025-10-03,17
India,Uttar_Pradesh,Ghaziabad,"Indirapuram, Ghaziabad - UPPCB",2025-10-03 17:00:00,28.646233,77.358075,NH3,7.0,11.0,9.0,2025-10-03,17
India,Uttar_Pradesh,Ghaziabad,"Indirapuram, Ghaziabad - UPPCB",2025-10-03 17:00:00,28.646233,77.358075,OZONE,8.0,34.0,26.0,2025-10-03,17
India,Tripura,Agartala,"Bardowali, Agartala - Tripura SPCB",2025-10-03 17:00:00,23.8175497,91.2726974,CO,19.0,73.0,26.0,2025-10-03,17
India,Uttar_Pradesh,Agra,"Manoharpur, Agra - UPPCB",2025-10-03 17:00:00,27.23711,78.01936,PM10,25.599043715846996,86.22131147540983,51.459016393442624,2025-10-03,17
India,Uttar_Pradesh,Agra,"Manoharpur, Agra - UPPCB",2025-10-03 17:00:00,27.23711,78.01936,OZONE,1.0,30.0,23.0,2025-10-03,17
India,Uttar_Pradesh,Agra,"Rohta, Agra - UPPCB",2025-10-03 17:00:00,27.106972,78.000111,OZONE,10.0,12.0,11.0,2025-10-03,17
India,Uttar_Pradesh,Agra,"Sanjay Palace, Agra - UPPCB",2025-10-03 17:00:00,27.19865833,78.00598056,SO2,11.0,24.0,15.0,2025-10-03,17
India,Uttar_Pradesh,Agra,"Sanjay Palace, Agra - UPPCB",2025-10-03 17:00:00,27.19865833,78.00598056,CO,22.0,27.0,25.0,2025-10-03,17
India,Uttar_Pradesh,Agra,"Sanjay Palace, Agra - UPPCB",2025-10-03 17:00:00,27.19865833,78.00598056,OZONE,30.0,128.0,112.0,2025-10-03,17
India,Telangana,Hyderabad,"New Malakpet, Hyderabad - TSPCB",2025-10-03 17:00:00,17.37206,78.50864,CO,14.0,51.0,28.0,2025-10-03,17
India,Telangana,Hyderabad,"Ramachandrapuram, Hyderabad - TSPCB",2025-10-03 17:00:00,17.528544,78.286195,PM10,63.0,65.0,64.0,2025-10-03,17
India,Telangana,Hyderabad,"Ramachandrapuram, Hyderabad - TSPCB",2025-10-03 17:00:00,17.528544,78.286195,CO,20.0,37.0,24.0,2025-10-03,17
India,Telangana,Hyderabad,"Somajiguda, Hyderabad - TSPCB",2025-10-03 17:00:00,17.417094,78.457437,PM10,69.0,88.0,76.0,2025-10-03,17
India,Telangana,Hyderabad,"Somajiguda, Hyderabad - TSPCB",2025-10-03 17:00:00,17.417094,78.457437,NO2,13.0,20.0,16.0,2025-10-03,17
India,Telangana,Hyderabad,"Somajiguda, Hyderabad - TSPCB",2025-10-03 17:00:00,17.417094,78.457437,CO,33.0,43.0,38.0,2025-10-03,17
India,Telangana,Hyderabad,"Zoo Park, Hyderabad - TSPCB",2025-10-03 17:00:00,17.349694,78.451437,PM2.5,110.0,188.0,160.0,2025-10-03,17
India,Uttar_Pradesh,Agra,"Sector-3B Avas Vikas Colony, Agra - UPPCB",2025-10-03 17:00:00,27.19412,77.96237,SO2,20.0,22.0,20.0,2025-10-03,17
India,Uttar_Pradesh,Agra,"Shahjahan Garden, Agra - UPPCB",2025-10-03 17:00:00,27.169338,78.03582,NO2,25.0,26.0,26.0,2025-10-03,17
India,Uttar_Pradesh,Agra,"Shahjahan Garden, Agra - UPPCB",2025-10-03 17:00:00,27.169338,78.03582,CO,8.0,20.0,13.0,2025-10-03,17
India,Uttar_Pradesh,Baghpat,"Sardar Patel Inter College, Baghpat - UPPCB",2025-10-03 17:00:00,28.964949,77.278761,PM2.5,25.599043715846996,86.22131147540983,51.459016393442624,2025-10-03,17
India,Uttar_Pradesh,Baghpat,"Sardar Patel Inter College, Baghpat - UPPCB",2025-10-03 17:00:00,28.964949,77.278761,NO2,25.599043715846996,86.22131147540983,51.459016393442624,2025-10-03,17
India,Uttar_Pradesh,Bareilly,"Rajendra Nagar, Bareilly - UPPCB",2025-10-03 17:00:00,28.38910936,79.42963708,PM10,24.0,51.0,39.0,2025-10-03,17
India,Uttar_Pradesh,Ghaziabad,"Sanjay Nagar, Ghaziabad - UPPCB",2025-10-03 17:00:00,28.685382,77.453839,SO2,24.0,75.0,43.0,2025-10-03,17
India,Uttar_Pradesh,Ghaziabad,"Vasundhara, Ghaziabad - UPPCB",2025-10-03 17:00:00,28.6603346,77.3572563,PM2.5,50.0,323.0,198.0,2025-10-03,17
India,Uttar_Pradesh,Ghaziabad,"Vasundhara, Ghaziabad - UPPCB",2025-10-03 17:00:00,28.6603346,77.3572563,PM10,101.0,243.0,170.0,2025-10-03,17
India,Uttar_Pradesh,Ghaziabad,"Vasundhara, Ghaziabad - UPPCB",2025-10-03 17:00:00,28.6603346,77.3572563,NH3,4.0,10.0,6.0,2025-10-03,17
India,Uttar_Pradesh,Gorakhpur,"Madan Mohan Malaviya University of Technology, Gorakhpur - UPPCB",2025-10-03 17:00:00,26.730136,83.433859,PM2.5,40.0,284.0,152.0,2025-10-03,17
India,Uttar_Pradesh,Gorakhpur,"Madan Mohan Malaviya University of Technology, Gorakhpur - UPPCB",2025-10-03 17:00:00,26.730136,83.433859,SO2,38.0,47.0,43.0,2025-10-03,17
India,Uttar_Pradesh,Jhansi,"Shivaji Nagar, Jhansi - UPPCB",2025-10-03 17:00:00,25.4547,78.6039,PM10,12.0,39.0,21.0,2025-10-03,17
India,Uttar_Pradesh,Kanpur,"NSI Kalyanpur, Kanpur - UPPCB",2025-10-03 17:00:00,26.509954,80.249612,PM2.5,12.0,205.0,93.0,2025-10-03,17
India,Uttar_Pradesh,Ghaziabad,"Loni, Ghaziabad - UPPCB",2025-10-03 17:00:00,28.757294,77.278792,NH3,8.0,10.0,9.0,2025-10-03,17
India,Uttar_Pradesh,Ghaziabad,"Loni, Ghaziabad - UPPCB",2025-10-03 17:00:00,28.757294,77.278792,SO2,16.0,44.0,23.0,2025-10-03,17
India,Uttar_Pradesh,Ghaziabad,"Loni, Ghaziabad - UPPCB",2025-10-03 17:00:00,28.757294,77.278792,CO,32.0,76.0,54.0,2025-10-03,17
India,Uttar_Pradesh,Greater Noida,"Knowledge Park - V, Greater Noida - UPPCB",2025-10-03 17:00:00,28.557054,77.453663,OZONE,4.0,120.0,85.0,2025-10-03,17
India,Uttar_Pradesh,Kanpur,"NSI Kalyanpur, Kanpur - UPPCB",2025-10-03 17:00:00,26.509954,80.249612,SO2,36.0,43.0,39.0,2025-10-03,17
India,Uttar_Pradesh,Prayagraj,"Motilal Nehru NIT, Prayagraj - UPPCB",2025-10-03 17:00:00,25.494,81.863,PM2.5,12.0,51.0,30.0,2025-10-03,17
India,Uttar_Pradesh,Prayagraj,"Motilal Nehru NIT, Prayagraj - UPPCB",2025-10-03 17:00:00,25.494,81.863,NH3,6.0,6.0,6.0,2025-10-03,17
India,Uttar_Pradesh,Prayagraj,"Nagar Nigam, Prayagraj - UPPCB",2025-10-03 17:00:00,25.44919916,81.82735986,SO2,34.0,70.0,46.0,2025-10-03,17
India,Uttar_Pradesh,Prayagraj,"Nagar Nigam, Prayagraj - UPPCB",2025-10-03 17:00:00,25.44919916,81.82735986,CO,6.0,89.0,11.0,2025-10-03,17
India,Uttar_Pradesh,Varanasi,"Bhelupur, Varanasi - UPPCB",2025-10-03 17:00:00,25.301778,82.996789,PM10,33.0,129.0,78.0,2025-10-03,17
India,Uttar_Pradesh,Varanasi,"Bhelupur, Varanasi - UPPCB",2025-10-03 17:00:00,25.301778,82.996789,OZONE,1.0,17.0,8.0,2025-10-03,17
India,Uttar_Pradesh,Varanasi,"IESD Banaras Hindu University, Varanasi - UPPCB",2025-10-03 17:00:00,25.262326,82.995408,NO2,2.0,2.0,2.0,2025-10-03,17
India,Uttar_Pradesh,Varanasi,"IESD Banaras Hindu University, Varanasi - UPPCB",2025-10-03 17:00:00,25.262326,82.995408,NH3,4.0,9.0,6.0,2025-10-03,17
India,Uttar_Pradesh,Kanpur,"Nehru Nagar, Kanpur - UPPCB",2025-10-03 17:00:00,26.4703136,80.3229863,SO2,13.0,24.0,17.0,2025-10-03,17
India,Uttar_Pradesh,Kanpur,"Nehru Nagar, Kanpur - UPPCB",2025-10-03 17:00:00,26.4703136,80.3229863,CO,27.0,50.0,35.0,2025-10-03,17
India,Uttar_Pradesh,Khurja,"Kalindi Kunj, Khurja - UPPCB",2025-10-03 17:00:00,28.2348927,77.8683002,NO2,3.0,5.0,3.0,2025-10-03,17
India,Uttar_Pradesh,Khurja,"Kalindi Kunj, Khurja - UPPCB",2025-10-03 17:00:00,28.2348927,77.8683002,NH3,1.0,1.0,1.0,2025-10-03,17
India,Uttar_Pradesh,Lucknow,"B R Ambedkar University, Lucknow - UPPCB",2025-10-03 17:00:00,26.766433,80.927299,NH3,3.0,4.0,4.0,2025-10-03,17
India,Uttar_Pradesh,Lucknow,"Gomti Nagar, Lucknow - UPPCB",2025-10-03 17:00:00,26.86812,81.005119,PM10,43.0,126.0,79.0,2025-10-03,17
India,Uttar_Pradesh,Lucknow,"Gomti Nagar, Lucknow - UPPCB",2025-10-03 17:00:00,26.86812,81.005119,SO2,9.0,14.0,10.0,2025-10-03,17
India,Uttar_Pradesh,Moradabad,"Kashiram Nagar, Moradabad - UPPCB",2025-10-03 17:00:00,28.849399,78.742362,CO,19.0,34.0,24.0,2025-10-03,17
India,Uttar_Pradesh,Moradabad,"Transport Nagar, Moradabad - UPPCB",2025-10-03 17:00:00,28.802625,78.753728,NH3,5.0,5.0,5.0,2025-10-03,17
India,Uttar_Pradesh,Muzaffarnagar,"New Mandi, Muzaffarnagar - UPPCB",2025-10-03 17:00:00,29.4723508,77.7194031,PM10,85.0,178.0,126.0,2025-10-03,17
India,Uttar_Pradesh,Muzaffarnagar,"New Mandi, Muzaffarnagar - UPPCB",2025-10-03 17:00:00,29.4723508,77.7194031,SO2,4.0,45.0,16.0,2025-10-03,17
India,Uttar_Pradesh,Noida,"Sector - 125, Noida - UPPCB",2025-10-03 17:00:00,28.5447608,77.3231257,PM2.5,30.0,131.0,69.0,2025-10-03,17
India,Uttar_Pradesh,Moradabad,"Eco Herbal Park, Moradabad - UPPCB",2025-10-03 17:00:00,28.840739,78.697531,PM2.5,21.0,55.0,33.0,2025-10-03,17
India,Uttar_Pradesh,Moradabad,"Eco Herbal Park, Moradabad - UPPCB",2025-10-03 17:00:00,28.840739,78.697531,CO,12.0,61.0,52.0,2025-10-03,17
India,Uttar_Pradesh,Moradabad,"Jigar Colony, Moradabad - UPPCB",2025-10-03 17:00:00,28.856664,78.772638,PM2.5,40.0,161.0,68.0,2025-10-03,17
India,Uttar_Pradesh,Moradabad,"Jigar Colony, Moradabad - UPPCB",2025-10-03 17:00:00,28.856664,78.772638,NO2,25.0,25.0,25.0,2025-10-03,17
India,Uttar_Pradesh,Lucknow,"Kendriya Vidyalaya, Lucknow - CPCB",2025-10-03 17:00:00,26.906111,80.948222,SO2,5.0,39.0,18.0,2025-10-03,17
India,Uttar_Pradesh,Lucknow,"Kukrail Picnic Spot-1, Lucknow - UPPCB",2025-10-03 17:00:00,26.90723,80.98579,PM2.5,50.0,251.0,118.0,2025-10-03,17
India,Uttar_Pradesh,Lucknow,"Kukrail Picnic Spot-1, Lucknow - UPPCB",2025-10-03 17:00:00,26.90723,80.98579,CO,16.0,36.0,27.0,2025-10-03,17
India,Uttar_Pradesh,Meerut,"Ganga Nagar, Meerut - UPPCB",2025-10-03 17:00:00,28.999264,77.7590354,PM10,71.0,118.0,99.0,2025-10-03,17
India,Uttar_Pradesh,Meerut,"Ganga Nagar, Meerut - UPPCB",2025-10-03 17:00:00,28.999264,77.7590354,SO2,6.0,28.0,19.0,2025-10-03,17
India,Uttar_Pradesh,Meerut,"Jai Bhim Nagar, Meerut - UPPCB",2025-10-03 17:00:00,28.9535882,77.7622941,OZONE,14.0,58.0,35.0,2025-10-03,17
India,Uttar_Pradesh,Meerut,"Pallavpuram Phase 2, Meerut - UPPCB",2025-10-03 17:00:00,29.06351,77.709723,SO2,7.0,87.0,21.0,2025-10-03,17
India,Uttar_Pradesh,Moradabad,"Buddhi Vihar, Moradabad - UPPCB",2025-10-03 17:00:00,28.83526,78.7446,PM10,43.0,117.0,71.0,2025-10-03,17
India,Uttar_Pradesh,Noida,"Sector - 62, Noida - IMD",2025-10-03 17:00:00,28.6245479,77.3577104,NO2,25.599043715846996,86.22131147540983,51.459016393442624,2025-10-03,17
India,Uttar_Pradesh,Noida,"Sector - 62, Noida - IMD",2025-10-03 17:00:00,28.6245479,77.3577104,OZONE,67.0,73.0,70.0,2025-10-03,17
India,Uttar_Pradesh,Noida,"Sector-1, Noida - UPPCB",2025-10-03 17:00:00,28.5898,77.3101,NH3,11.0,25.0,18.0,2025-10-03,17
India,Uttar_Pradesh,Lucknow,"Lalbagh, Lucknow - CPCB",2025-10-03 17:00:00,26.8458805,80.9365541,PM2.5,76.0,336.0,206.0,2025-10-03,17
India,Uttar_Pradesh,Lucknow,"Lalbagh, Lucknow - CPCB",2025-10-03 17:00:00,26.8458805,80.9365541,PM10,25.599043715846996,86.22131147540983,51.459016393442624,2025-10-03,17
India,Uttar_Pradesh,Lucknow,"Lalbagh, Lucknow - CPCB",2025-10-03 17:00:00,26.8458805,80.9365541,NO2,63.0,110.0,81.0,2025-10-03,17
India,Uttar_Pradesh,Varanasi,"Maldahiya, Varanasi - UPPCB",2025-10-03 17:00:00,25.32393,82.99687,NO2,2.0,2.0,2.0,2025-10-03,17
India,Uttar_Pradesh,Vrindavan,"Omex Eternity, Vrindavan - UPPCB",2025-10-03 17:00:00,27.571409,77.655757,NH3,1.0,2.0,2.0,2025-10-03,17
India,Uttarakhand,Dehradun,"Doon University, Dehradun - UKPCB",2025-10-03 17:00:00,30.269444,78.044167,PM2.5,36.0,180.0,65.0,2025-10-03,17
India,Uttarakhand,Dehradun,"Doon University, Dehradun - UKPCB",2025-10-03 17:00:00,30.269444,78.044167,OZONE,31.0,113.0,77.0,2025-10-03,17
India,Uttarakhand,Kashipur,"Govt. Girls Inter College, Kashipur - UKPCB",2025-10-03 17:00:00,29.2124114,78.9611753,PM2.5,65.0,129.0,88.0,2025-10-03,17
India,Uttarakhand,Kashipur,"Govt. Girls Inter College, Kashipur - UKPCB",2025-10-03 17:00:00,29.2124114,78.9611753,NO2,18.0,42.0,29.0,2025-10-03,17
India,Uttarakhand,Rishikesh,"Shivaji Nagar, Rishikesh - UKPCB",2025-10-03 17:00:00,30.075911,78.2859547,PM10,54.0,82.0,70.0,2025-10-03,17
India,Uttarakhand,Rishikesh,"Shivaji Nagar, Rishikesh - UKPCB",2025-10-03 17:00:00,30.075911,78.2859547,NO2,12.0,20.0,14.0,2025-10-03,17
India,West_Bengal,Asansol,"Asansol Court Area, Asansol - WBPCB",2025-10-03 17:00:00,23.685297,86.945968,PM2.5,98.0,272.0,174.0,2025-10-03,17
India,West_Bengal,Asansol,"Asansol Court Area, Asansol - WBPCB",2025-10-03 17:00:00,23.685297,86.945968,NH3,5.0,9.0,7.0,2025-10-03,17
India,West_Bengal,Asansol,"Asansol Court Area, Asansol - WBPCB",2025-10-03 17:00:00,23.685297,86.945968,SO2,11.0,52.0,23.0,2025-10-03,17
India,West_Bengal,Asansol,"Evelyn Lodge, Asansol - WBPCB",2025-10-03 17:00:00,23.697936,86.944395,NH3,6.0,9.0,8.0,2025-10-03,17
India,West_Bengal,Asansol,"Evelyn Lodge, Asansol - WBPCB",2025-10-03 17:00:00,23.697936,86.944395,CO,54.0,96.0,65.0,2025-10-03,17
India,West_Bengal,Asansol,"Trivenidevi Bhalotia College, Asansol - WBPCB",2025-10-03 17:00:00,23.616515,87.119133,PM2.5,76.0,302.0,180.0,2025-10-03,17
India,West_Bengal,Asansol,"Trivenidevi Bhalotia College, Asansol - WBPCB",2025-10-03 17:00:00,23.616515,87.119133,NH3,2.0,3.0,2.0,2025-10-03,17
India,West_Bengal,Durgapur,"Mahishkapur Road_B-Zone, Durgapur - WBPCB",2025-10-03 17:00:00,23.567923,87.306843,NO2,5.0,36.0,14.0,2025-10-03,17
India,West_Bengal,Haldia,"Priyambada Housing Estate, Haldia - WBPCB",2025-10-03 17:00:00,22.06047,88.109737,NO2,12.0,29.0,16.0,2025-10-03,17
India,West_Bengal,Haldia,"Priyambada Housing Estate, Haldia - WBPCB",2025-10-03 17:00:00,22.06047,88.109737,NH3,6.0,8.0,7.0,2025-10-03,17
India,West_Bengal,Howrah,"Belur Math, Howrah - WBPCB",2025-10-03 17:00:00,22.629801,88.352017,PM10,89.0,128.0,110.0,2025-10-03,17
India,West_Bengal,Howrah,"Botanical Garden, Howrah - WBPCB",2025-10-03 17:00:00,22.554954,88.292568,NO2,8.0,175.0,21.0,2025-10-03,17
India,West_Bengal,Howrah,"Botanical Garden, Howrah - WBPCB",2025-10-03 17:00:00,22.554954,88.292568,NH3,2.0,66.0,8.0,2025-10-03,17
India,West_Bengal,Howrah,"Botanical Garden, Howrah - WBPCB",2025-10-03 17:00:00,22.554954,88.292568,SO2,4.0,8.0,5.0,2025-10-03,17
India,West_Bengal,Howrah,"Botanical Garden, Howrah - WBPCB",2025-10-03 17:00:00,22.554954,88.292568,OZONE,7.0,80.0,56.0,2025-10-03,17
India,West_Bengal,Howrah,"Dasnagar, Howrah - WBPCB",2025-10-03 17:00:00,22.6025571,88.3105664,NO2,11.0,68.0,32.0,2025-10-03,17
India,West_Bengal,Howrah,"Ghusuri, Howrah - WBPCB",2025-10-03 17:00:00,22.611968,88.347422,PM2.5,25.599043715846996,86.22131147540983,51.459016393442624,2025-10-03,17
India,West_Bengal,Howrah,"Ghusuri, Howrah - WBPCB",2025-10-03 17:00:00,22.611968,88.347422,CO,25.599043715846996,86.22131147540983,51.459016393442624,2025-10-03,17
India,West_Bengal,Howrah,"Padmapukur, Howrah - WBPCB",2025-10-03 17:00:00,22.5687319,88.2797276,NO2,17.0,35.0,26.0,2025-10-03,17
India,West_Bengal,Howrah,"Padmapukur, Howrah - WBPCB",2025-10-03 17:00:00,22.5687319,88.2797276,NH3,5.0,9.0,7.0,2025-10-03,17
India,West_Bengal,Kolkata,"Ballygunge, Kolkata - WBPCB",2025-10-03 17:00:00,22.5367507,88.3638022,OZONE,10.0,74.0,54.0,2025-10-03,17
India,West_Bengal,Kolkata,"Fort William, Kolkata - WBPCB",2025-10-03 17:00:00,22.55664,88.342674,NO2,30.0,82.0,51.0,2025-10-03,17
India,West_Bengal,Kolkata,"Jadavpur, Kolkata - WBPCB",2025-10-03 17:00:00,22.49929,88.36917,PM2.5,97.0,213.0,143.0,2025-10-03,17
India,West_Bengal,Kolkata,"Jadavpur, Kolkata - WBPCB",2025-10-03 17:00:00,22.49929,88.36917,NO2,9.0,35.0,17.0,2025-10-03,17
India,West_Bengal,Kolkata,"Rabindra Bharati University, Kolkata - WBPCB",2025-10-03 17:00:00,22.627847,88.380669,NH3,8.0,9.0,9.0,2025-10-03,17
India,West_Bengal,Kolkata,"Rabindra Bharati University, Kolkata - WBPCB",2025-10-03 17:00:00,22.627847,88.380669,SO2,9.0,12.0,10.0,2025-10-03,17
India,West_Bengal,Kolkata,"Rabindra Bharati University, Kolkata - WBPCB",2025-10-03 17:00:00,22.627847,88.380669,CO,25.0,34.0,30.0,2025-10-03,17
India,West_Bengal,Kolkata,"Rabindra Sarobar, Kolkata - WBPCB",2025-10-03 17:00:00,22.51106,88.35142,CO,8.0,24.0,14.0,2025-10-03,17
India,West_Bengal,Kolkata,"Victoria, Kolkata - WBPCB",2025-10-03 17:00:00,22.5448082,88.3403691,PM10,94.0,122.0,106.0,2025-10-03,17
India,Andhra_Pradesh,Vijayawada,"HB Colony, Vijayawada - APPCB",2025-10-03 17:00:00,16.536107,80.594233,SO2,6.0,9.0,8.0,2025-10-03,17
India,Andhra_Pradesh,Vijayawada,"HB Colony, Vijayawada - APPCB",2025-10-03 17:00:00,16.536107,80.594233,CO,22.0,34.0,28.0,2025-10-03,17
India,Andhra_Pradesh,Vijayawada,"Rajiv Gandhi Park, Vijayawada - APPCB",2025-10-03 17:00:00,16.509717,80.612222,PM2.5,60.0,91.0,78.0,2025-10-03,17
India,Andhra_Pradesh,Vijayawada,"Rajiv Gandhi Park, Vijayawada - APPCB",2025-10-03 17:00:00,16.509717,80.612222,CO,35.0,44.0,41.0,2025-10-03,17
India,Andhra_Pradesh,Vijayawada,"Rajiv Gandhi Park, Vijayawada - APPCB",2025-10-03 17:00:00,16.509717,80.612222,OZONE,1.0,31.0,25.0,2025-10-03,17
India,Andhra_Pradesh,Vijayawada,"Rajiv Nagar, Vijayawada - APPCB",2025-10-03 17:00:00,16.554731,80.64911,PM2.5,48.0,60.0,53.0,2025-10-03,17
India,Andhra_Pradesh,Vijayawada,"Rajiv Nagar, Vijayawada - APPCB",2025-10-03 17:00:00,16.554731,80.64911,NH3,4.0,5.0,5.0,2025-10-03,17
India,Andhra_Pradesh,Tirumala,"Toll Gate, Tirumala - APPCB (Formerly known as Tirumala, Tirupati - APPCB)",2025-10-03 17:00:00,13.67,79.35,SO2,1.0,10.0,5.0,2025-10-03,17
India,Andhra_Pradesh,Tirumala,"Toll Gate, Tirumala - APPCB (Formerly known as Tirumala, Tirupati - APPCB)",2025-10-03 17:00:00,13.67,79.35,OZONE,15.0,57.0,32.0,2025-10-03,17
India,Andhra_Pradesh,Tirupati,"Vaikuntapuram, Tirupati - APPCB",2025-10-03 17:00:00,13.615387,79.40923,PM10,25.599043715846996,86.22131147540983,51.459016393442624,2025-10-03,17
India,Andhra_Pradesh,Tirupati,"Vaikuntapuram, Tirupati - APPCB",2025-10-03 17:00:00,13.615387,79.40923,NH3,25.599043715846996,86.22131147540983,51.459016393442624,2025-10-03,17
India,Andhra_Pradesh,Tirupati,"Vaikuntapuram, Tirupati - APPCB",2025-10-03 17:00:00,13.615387,79.40923,SO2,25.599043715846996,86.22131147540983,51.459016393442624,2025-10-03,17
India,Andhra_Pradesh,Vijayawada,"HB Colony, Vijayawada - APPCB",2025-10-03 17:00:00,16.536107,80.594233,PM2.5,50.0,75.0,57.0,2025-10-03,17
India,Andaman and Nicobar,Sri Vijaya Puram,"Police Line, Sri Vijaya Puram - ANPCC",2025-10-03 17:00:00,11.654054,92.734055,SO2,4.0,35.0,19.0,2025-10-03,17
India,Andaman and Nicobar,Sri Vijaya Puram,"Police Line, Sri Vijaya Puram - ANPCC",2025-10-03 17:00:00,11.654054,92.734055,CO,24.0,46.0,42.0,2025-10-03,17
India,Andhra_Pradesh,Amaravati,"Secretariat, Amaravati - APPCB",2025-10-03 17:00:00,16.5150833,80.5181667,PM10,48.0,103.0,69.0,2025-10-03,17
India,Assam,Guwahati,"IITG, Guwahati - PCBA",2025-10-03 17:00:00,26.2028636,91.70046436,NH3,25.599043715846996,86.22131147540983,51.459016393442624,2025-10-03,17
India,Assam,Guwahati,"LGBI Airport, Guwahati - PCBA",2025-10-03 17:00:00,26.10887,91.589544,PM2.5,45.0,328.0,219.0,2025-10-03,17
India,Assam,Guwahati,"LGBI Airport, Guwahati - PCBA",2025-10-03 17:00:00,26.10887,91.589544,CO,10.0,40.0,19.0,2025-10-03,17
India,Assam,Byrnihat,"Central Academy for SFS, Byrnihat - PCBA",2025-10-03 17:00:00,26.071318,91.87488,PM10,25.599043715846996,86.22131147540983,51.459016393442624,2025-10-03,17
India,Assam,Byrnihat,"Central Academy for SFS, Byrnihat - PCBA",2025-10-03 17:00:00,26.071318,91.87488,SO2,25.599043715846996,86.22131147540983,51.459016393442624,2025-10-03,17
India,Andhra_Pradesh,Kadapa,"Yerramukkapalli, Kadapa - APPCB",2025-10-03 17:00:00,14.465052,78.824187,NO2,25.599043715846996,86.22131147540983,51.459016393442624,2025-10-03,17
India,Andhra_Pradesh,Kadapa,"Yerramukkapalli, Kadapa - APPCB",2025-10-03 17:00:00,14.465052,78.824187,SO2,25.599043715846996,86.22131147540983,51.459016393442624,2025-10-03,17
India,Andhra_Pradesh,Rajamahendravaram,"Anand Kala Kshetram, Rajamahendravaram - APPCB",2025-10-03 17:00:00,16.9872867,81.7363176,CO,2.0,40.0,26.0,2025-10-03,17
India,Andhra_Pradesh,Vijayawada,"Rajiv Nagar, Vijayawada - APPCB",2025-10-03 17:00:00,16.554731,80.64911,OZONE,10.0,55.0,39.0,2025-10-03,17
India,Andhra_Pradesh,Visakhapatnam,"GVM Corporation, Visakhapatnam - APPCB",2025-10-03 17:00:00,17.72,83.3,CO,14.0,26.0,23.0,2025-10-03,17
India,Andhra_Pradesh,Vijayawada,"Rajiv Nagar, Vijayawada - APPCB",2025-10-03 17:00:00,16.554731,80.64911,CO,12.0,30.0,16.0,2025-10-03,17
India,Assam,Guwahati,"Pan Bazaar, Guwahati - PCBA",2025-10-03 17:00:00,26.1875,91.744194,PM2.5,106.0,313.0,221.0,2025-10-03,17
India,Assam,Guwahati,"Pan Bazaar, Guwahati - PCBA",2025-10-03 17:00:00,26.1875,91.744194,SO2,21.0,37.0,29.0,2025-10-03,17
India,Assam,Guwahati,"Pan Bazaar, Guwahati - PCBA",2025-10-03 17:00:00,26.1875,91.744194,OZONE,16.0,17.0,17.0,2025-10-03,17
India,Assam,Nagaon,"Christianpatty, Nagaon - PCBA",2025-10-03 17:00:00,26.349082,92.68449,OZONE,1.0,16.0,13.0,2025-10-03,17
India,Assam,Nalbari,"Bata Chowk, Nalbari - PCBA",2025-10-03 17:00:00,26.446912,91.439057,PM2.5,63.0,308.0,173.0,2025-10-03,17
India,Assam,Nalbari,"Bata Chowk, Nalbari - PCBA",2025-10-03 17:00:00,26.446912,91.439057,OZONE,9.0,67.0,52.0,2025-10-03,17
India,Bihar,Araria,"Kharahiya Basti, Araria - BSPCB",2025-10-03 17:00:00,26.146529,87.454184,PM2.5,25.599043715846996,86.22131147540983,51.459016393442624,2025-10-03,17
India,Bihar,Araria,"Kharahiya Basti, Araria - BSPCB",2025-10-03 17:00:00,26.146529,87.454184,PM10,25.599043715846996,86.22131147540983,51.459016393442624,2025-10-03,17
India,Bihar,Araria,"Kharahiya Basti, Araria - BSPCB",2025-10-03 17:00:00,26.146529,87.454184,NO2,2.0,7.0,6.0,2025-10-03,17
India,Bihar,Araria,"Kharahiya Basti, Araria - BSPCB",2025-10-03 17:00:00,26.146529,87.454184,OZONE,9.0,12.0,10.0,2025-10-03,17
India,Bihar,Arrah,"New DM Office, Arrah - BSPCB",2025-10-03 17:00:00,25.5626095,84.663264,NH3,1.0,1.0,1.0,2025-10-03,17
India,Assam,Silchar,"Tarapur, Silchar - PCBA",2025-10-03 17:00:00,24.82827,92.79525,NO2,8.0,14.0,12.0,2025-10-03,17
India,Assam,Silchar,"Tarapur, Silchar - PCBA",2025-10-03 17:00:00,24.82827,92.79525,OZONE,1.0,36.0,16.0,2025-10-03,17
India,Assam,Sivasagar,"Girls College, Sivasagar - PCBA",2025-10-03 17:00:00,26.987634,94.636574,PM2.5,15.0,98.0,62.0,2025-10-03,17
India,Bihar,Buxar,"Charitra Van, Buxar - BSPCB",2025-10-03 17:00:00,25.56752,83.966379,CO,31.0,114.0,42.0,2025-10-03,17
India,Bihar,Gaya,"Collectorate, Gaya - BSPCB",2025-10-03 17:00:00,24.7955,84.9994,CO,25.599043715846996,86.22131147540983,51.459016393442624,2025-10-03,17
India,Bihar,Gaya,"Collectorate, Gaya - BSPCB",2025-10-03 17:00:00,24.7955,84.9994,OZONE,25.599043715846996,86.22131147540983,51.459016393442624,2025-10-03,17
India,Bihar,Katihar,"Mirchaibari, Katihar - BSPCB",2025-10-03 17:00:00,25.560083,87.553265,PM10,29.0,84.0,57.0,2025-10-03,17
India,Bihar,Kishanganj,"SDM Office_Khagra, Kishanganj - BSPCB",2025-10-03 17:00:00,26.0881305,87.93840336,NO2,24.0,32.0,27.0,2025-10-03,17
India,Bihar,Bhagalpur,"DM Office_Kachari Chowk, Bhagalpur - BSPCB",2025-10-03 17:00:00,25.251013,86.989001,OZONE,17.0,19.0,18.0,2025-10-03,17
India,Bihar,Bhagalpur,"Mayaganj, Bhagalpur - BSPCB",2025-10-03 17:00:00,25.265194,87.012947,NO2,25.599043715846996,86.22131147540983,51.459016393442624,2025-10-03,17
India,Bihar,Gaya,"Kareemganj, Gaya - BSPCB",2025-10-03 17:00:00,24.792403,84.992416,OZONE,19.0,110.0,76.0,2025-10-03,17
India,Bihar,Gaya,"SFTI Kusdihra, Gaya - BSPCB",2025-10-03 17:00:00,24.762518,84.982348,PM10,48.0,115.0,82.0,2025-10-03,17
India,Bihar,Gaya,"SFTI Kusdihra, Gaya - BSPCB",2025-10-03 17:00:00,24.762518,84.982348,NO2,18.0,20.0,20.0,2025-10-03,17
India,Bihar,Gaya,"SFTI Kusdihra, Gaya - BSPCB",2025-10-03 17:00:00,24.762518,84.982348,NH3,3.0,4.0,3.0,2025-10-03,17
India,Bihar,Aurangabad,"Gurdeo Nagar, Aurangabad - BSPCB",2025-10-03 17:00:00,24.75746,84.366208,NO2,2.0,3.0,2.0,2025-10-03,17
India,Bihar,Rajgir,"Dangi Tola, Rajgir - BSPCB",2025-10-03 17:00:00,25.0328,85.41948,SO2,25.599043715846996,86.22131147540983,51.459016393442624,2025-10-03,17
India,Bihar,Saharsa,"Police Line, Saharsa - BSPCB",2025-10-03 17:00:00,25.892357,86.590325,PM2.5,25.599043715846996,86.22131147540983,51.459016393442624,2025-10-03,17
India,Bihar,Saharsa,"Police Line, Saharsa - BSPCB",2025-10-03 17:00:00,25.892357,86.590325,CO,57.0,74.0,68.0,2025-10-03,17
India,Bihar,Samastipur,"DM Office_Kasipur, Samastipur - BSPCB",2025-10-03 17:00:00,25.859655,85.77944,PM10,25.599043715846996,86.22131147540983,51.459016393442624,2025-10-03,17
India,Bihar,Samastipur,"DM Office_Kasipur, Samastipur - BSPCB",2025-10-03 17:00:00,25.859655,85.77944,SO2,25.599043715846996,86.22131147540983,51.459016393442624,2025-10-03,17
India,Bihar,Samastipur,"DM Office_Kasipur, Samastipur - BSPCB",2025-10-03 17:00:00,25.859655,85.77944,CO,24.0,41.0,30.0,2025-10-03,17
India,Bihar,Sasaram,"Dada Peer, Sasaram - BSPCB",2025-10-03 17:00:00,24.952822,84.002396,PM2.5,78.0,348.0,235.0,2025-10-03,17
India,Bihar,Sasaram,"Dada Peer, Sasaram - BSPCB",2025-10-03 17:00:00,24.952822,84.002396,CO,50.0,56.0,52.0,2025-10-03,17
India,Bihar,Sasaram,"Dada Peer, Sasaram - BSPCB",2025-10-03 17:00:00,24.952822,84.002396,OZONE,4.0,16.0,10.0,2025-10-03,17
India,Bihar,Siwan,"Chitragupta Nagar, Siwan - BSPCB",2025-10-03 17:00:00,26.2271665,84.3570427,PM2.5,25.599043715846996,86.22131147540983,51.459016393442624,2025-10-03,17
India,Bihar,Siwan,"Chitragupta Nagar, Siwan - BSPCB",2025-10-03 17:00:00,26.2271665,84.3570427,NH3,1.0,2.0,2.0,2025-10-03,17
India,Bihar,Patna,"Muradpur, Patna - BSPCB",2025-10-03 17:00:00,25.619651,85.147382,OZONE,15.0,21.0,18.0,2025-10-03,17
India,Bihar,Patna,"Rajbansi Nagar, Patna - BSPCB",2025-10-03 17:00:00,25.599486,85.113666,PM2.5,38.0,195.0,103.0,2025-10-03,17
India,Bihar,Patna,"Rajbansi Nagar, Patna - BSPCB",2025-10-03 17:00:00,25.599486,85.113666,NO2,23.0,80.0,36.0,2025-10-03,17
India,Bihar,Patna,"Samanpura, Patna - BSPCB",2025-10-03 17:00:00,25.596727,85.085624,OZONE,13.0,21.0,16.0,2025-10-03,17
India,Bihar,Purnia,"Mariam Nagar, Purnia - BSPCB",2025-10-03 17:00:00,25.366336,87.117468,PM2.5,90.0,335.0,216.0,2025-10-03,17
India,Bihar,Rajgir,"Dangi Tola, Rajgir - BSPCB",2025-10-03 17:00:00,25.0328,85.41948,PM2.5,25.599043715846996,86.22131147540983,51.459016393442624,2025-10-03,17
India,Bihar,Rajgir,"Dangi Tola, Rajgir - BSPCB",2025-10-03 17:00:00,25.0328,85.41948,NH3,2.0,3.0,2.0,2025-10-03,17
India,Bihar,Munger,"Town Hall, Munger - BSPCB",2025-10-03 17:00:00,25.376776,86.471523,SO2,18.0,30.0,26.0,2025-10-03,17
India,Bihar,Munger,"Town Hall, Munger - BSPCB",2025-10-03 17:00:00,25.376776,86.471523,CO,14.0,40.0,32.0,2025-10-03,17
India,Bihar,Muzaffarpur,"Buddha Colony, Muzaffarpur - BSPCB",2025-10-03 17:00:00,26.11442,85.39813,PM2.5,107.0,315.0,251.0,2025-10-03,17
India,Bihar,Kishanganj,"SDM Office_Khagra, Kishanganj - BSPCB",2025-10-03 17:00:00,26.0881305,87.93840336,SO2,4.0,80.0,27.0,2025-10-03,17
India,Bihar,Motihari,"Gandak Colony, Motihari - BSPCB",2025-10-03 17:00:00,26.63086,84.90051,NO2,22.0,34.0,29.0,2025-10-03,17
India,Bihar,Motihari,"Gandak Colony, Motihari - BSPCB",2025-10-03 17:00:00,26.63086,84.90051,CO,25.0,79.0,37.0,2025-10-03,17
India,Chhattisgarh,Bhilai,"32Bungalows, Bhilai - CECB",2025-10-03 17:00:00,21.194815,81.31477,OZONE,6.0,36.0,27.0,2025-10-03,17
India,Chhattisgarh,Bhilai,"Civic Center, Bhilai - Bhilai Steel Plant",2025-10-03 17:00:00,21.185571,81.343175,PM2.5,17.0,83.0,40.0,2025-10-03,17
India,Chhattisgarh,Bhilai,"Civic Center, Bhilai - Bhilai Steel Plant",2025-10-03 17:00:00,21.185571,81.343175,NH3,1.0,2.0,2.0,2025-10-03,17
India,Chandigarh,Chandigarh,"Sector 22, Chandigarh - CPCC",2025-10-03 17:00:00,30.735567,76.775714,CO,22.0,111.0,42.0,2025-10-03,17
India,Chandigarh,Chandigarh,"Sector-25, Chandigarh - CPCC",2025-10-03 17:00:00,30.751462,76.762879,CO,19.0,46.0,29.0,2025-10-03,17
India,Chandigarh,Chandigarh,"Sector-53, Chandigarh - CPCC",2025-10-03 17:00:00,30.719859,76.738637,OZONE,3.0,121.0,88.0,2025-10-03,17
India,Chhattisgarh,Korba,"Rampur, Korba - CECB",2025-10-03 17:00:00,22.368195,82.746431,NO2,32.0,75.0,40.0,2025-10-03,17
India,Chhattisgarh,Korba,"Rampur, Korba - CECB",2025-10-03 17:00:00,22.368195,82.746431,NH3,1.0,1.0,1.0,2025-10-03,17
India,Chhattisgarh,Korba,"Rampur, Korba - CECB",2025-10-03 17:00:00,22.368195,82.746431,OZONE,4.0,21.0,9.0,2025-10-03,17
India,Chhattisgarh,Bilaspur,"Mangala, Bilaspur - NTPC",2025-10-03 17:00:00,22.08815,82.13737,SO2,3.0,31.0,22.0,2025-10-03,17
India,Chhattisgarh,Bilaspur,"Mangala, Bilaspur - NTPC",2025-10-03 17:00:00,22.08815,82.13737,CO,24.0,42.0,39.0,2025-10-03,17
India,Bihar,Muzaffarpur,"MIT-Daudpur Kothi, Muzaffarpur - BSPCB",2025-10-03 17:00:00,26.1403345,85.3650192,OZONE,13.0,100.0,61.0,2025-10-03,17
India,Chhattisgarh,Milupara,"Govt. Higher Secondary School, Milupara - CECB",2025-10-03 17:00:00,22.1910172,83.5197009,OZONE,5.0,12.0,7.0,2025-10-03,17
India,Chhattisgarh,Raipur,"AIIMS, Raipur - CECB",2025-10-03 17:00:00,21.258815,81.578979,SO2,10.0,45.0,20.0,2025-10-03,17
India,Chhattisgarh,Raipur,"Bhatagaon New ISBT, Raipur - CECB",2025-10-03 17:00:00,21.219665,81.630094,SO2,6.0,30.0,14.0,2025-10-03,17
